#--------------------------------------------------#
#----------------DRILLING INFO, INC.---------------#
#---------------WWW.DRILLINGINFO.COM---------------#
#------------------COPYRIGHT 2018------------------#
#--------------------------------------------------#
#THIS FILE MAY BE USED ONLY IN ACCORDANCE WITH A CURRENT SUBSCRIPTION AGREEMENT BETWEEN
#THE USER AND DRILLING INFO, INC. NO PART OF THIS FILE MAY BE REPRODUCED, USED, COPIED,
#MODIFIED, PROPAGATED, OR DISTRIBUTED EXCEPT IN ACCORDANCE WITH THE SUBSCRIPTION
#AGREEMENT. UNAUTHORIZED USE OR DISTRIBUTION OF ALL OR ANY PART OF THIS FILE MAY VIOLATE
#COPYRIGHT, TRADEMARK, AND/OR OTHER LAWS AND IS SUBJECT TO CIVIL AS WELL AS CRIMINAL
#SANCTIONS.
#--------------------------------------------------#
#THIS FILE IS PROVIDED "AS-IS" AND ALL WARRANTIES ARE EXPRESSLY DISCLAIMED, WHETHER
#EXPRESS, ORAL, IMPLIED, STATUTORY OR OTHERWISE, INCLUDING ANY IMPLIED WARRANTY OF FITNESS
#FOR A PARTICULAR PURPOSE, MERCHANTABILITY, TITLE OR NON-INFRINGEMENT, AND ANY WARRANTIES
#ARISING BY VIRTUE OF CUSTOM OF TRADE OR COURSE OF DEALING.  FURTHER, DRILLING INFO,
#INC. AND ITS LICENSORS DO NOT REPRESENT OR WARRANT THAT THIS FILE WILL MEET USER'S
#REQUIREMENTS OR ARE SUITABLE FOR USER'S NEEDS OR THAT THE DATA OR RESULTS PROVIDED IN
#CONJUNCTION THEREWITH ARE CORRECT, ACCURATE, TIMELY OR RELIABLE. THESE DISCLAIMERS SHALL
#APPLY REGARDLESS OF ANY FAILURE OF ESSENTIAL PURPOSE OF ANY LIMITED REMEDY.  SOME
#JURISDICTIONS DO NOT ALLOW THE EXCLUSION OF CERTAIN WARRANTIES SO SOME OF THE ABOVE
#EXCLUSIONS MAY NOT APPLY. IN NO EVENT SHALL DRILLING INFO, INC. OR ANY OF ITS AFFILIATES
#BE LIABLE UNDER ANY LEGAL THEORY, WHETHER IN TORT (INCLUDING WITHOUT LIMITATION
#NEGLIGENCE), CONTRACT, STRICT LIABILITY, STATUTORY OR OTHERWISE, FOR ANY SPECIAL,
#INCIDENTAL, CONSEQUENTIAL, EXEMPLARY, PUNITIVE OR INDIRECT DAMAGE OF ANY KIND, INCLUDING
#WITHOUT LIMITATION LOSS OF REVENUE, PROFITS, GOODWILL, USE, AND/OR DATA OR THE COST OF
#PROCUREMENT OF SUBSTITUTE GOODS OR SERVICES, EVEN IF APPRISED OF THE POSSIBILITY OF SUCH
#DAMAGES IN ADVANCE.
#--------------------------------------------------#
# Exported from DI Transform
# DI Transform - A Product of Drillinginfo, Inc. - www.drillinginfo.com
#--------------------------------------------------#
#
~VERSION INFORMATION
 VERS.        2.0 : LAS ASCII STANDARD - VERSION 2.0
 WRAP.         NO : ONE LINE PER DEPTH STEP

~WELL INFORMATION
#MNEM.UNIT       DATA TYPE       INFORMATION
#---------       ---------       -----------
 STRT.ft           120 : Start Depth
 STOP.ft          9260 : Stop Depth
 STEP.ft           0.5 : Step Length
 NULL.         -999.25 : Null Value
 COMP.                 : Company
 WELL.          DRD_90 : Well Name
 FLD.                  : Field Name
 LOC.                  : Well Location
 CNTY.                 : County
 STAT.                 : State or Province
 CTRY.                 : Country
 SRVC.                 : Service Company
 DATE.                 : Date
 API.   42383308360000 : Well Identifier

~CURVE INFORMATION
#MNEM.UNIT       API CODE       CURVE DESCRIPTION
#---------       --------       -----------------
 DEPT.ft          : <Measured Depth>
 CAL.in           : Caliper
 DPHI.%           : Density Porosity
 DT.us/ft         : Sonic
 GR.gAPI          : Gamma Ray
 LLD.ohmm         : Deep Resistivity
 LLS.ohmm         : Shallow Resistivity
 NPHI.%           : Neutron Porosity
 RHOB.g/cm3       : Density

~PARAMETER INFORMATION
#MNEM.UNIT       VALUE       DESCRIPTION
#---------       -----       -----------
 EKB.ft      2720 : Elevation above MSL

~A       DEPT         CAL        DPHI          DT          GR         LLD         LLS        NPHI        RHOB
# ...
       6069.5      8.1498      7.3161      79.545    104.6772     18.1263     15.7532     18.6924      2.5563
         6070      8.1498       7.519     83.0782    107.0241     25.3414     19.1386     21.4048       2.545
       6070.5      8.2149      8.5067     85.1904    106.0735     57.7461     28.9048     24.6547      2.5381
         6071        8.26      8.5067     83.7158    100.5516    103.9297     47.0304      25.451      2.5373
       6071.5      8.2705      8.5067     81.7362     88.4443    150.0107     98.7854     25.4018      2.5396
         6072      8.2705      6.8197     74.8824     83.4397    256.9275    122.9683      20.035      2.5487
       6072.5      8.2464      5.4746     71.9184     66.9587    159.7021    111.3151     19.9976      2.5938
         6073      8.2464      2.1741     62.4266     57.1388    122.9827     49.8518     18.3878      2.6712
       6073.5      8.2222     -2.9408     58.5598     51.8421     70.7559     29.8485     15.5099      2.7318
         6074      8.1014     -4.4641     54.1661     50.4399     28.1896     22.8046     11.5921      2.7668
       6074.5      8.1014     -3.4991     54.4757      51.987     22.8879     15.4245     10.6267      2.7028
         6075      8.1014       -1.57     60.2816     60.5167     18.4746      13.869     10.8166      2.6539
       6075.5      8.1014       1.757     67.4643     72.8507     15.8799     12.6191     12.9842      2.5848
         6076      8.1498      6.4486     74.9675     80.9656     14.5198     12.2449     14.0302      2.5315
       6076.5      8.1498      8.9541     79.8558     94.7479     14.1149     11.5662      17.366      2.5053
         6077      8.1739      9.5109      84.055    106.7166     14.2853     11.5662     18.9754      2.4919
       6077.5      8.1739     10.9521     84.3677    108.6957     15.1793     12.3089     20.8544      2.4919
         6078      8.2161     11.2608      84.421     116.167     16.0011     12.3089     22.4059      2.5024
       6078.5      8.2371     10.9547     82.2922     117.029     16.3887     11.9183     22.9935       2.508
         6079      8.3188     10.5392     82.7955    116.8524     15.3022      11.357     23.4483      2.5094
       6079.5       8.343     10.3497     83.5285    115.8124     12.2564     10.1691     22.6884      2.5094
         6080       8.343      9.6706     83.9875    115.6623     11.6475      8.9922     22.4333      2.5031
       6080.5       8.343     10.5438     84.2925     115.942     10.8684      8.5899     22.4158       2.495
         6081      8.3188     10.5172     82.9998    116.3043     10.8684     11.6707     22.2073      2.5249
       6081.5      8.3391      9.2886     82.6859    114.7911     10.8281     13.7169     22.2508       2.535
         6082      8.3913      8.6047     80.6489    107.6388     12.7275     14.4215     22.0036      2.5483
       6082.5      8.3913      8.1243     79.8744     104.406     19.5396     15.1344     20.8394      2.5319
         6083      8.3913      8.5501     78.7709     99.8374     21.8761     15.1691     20.9021      2.5246
       6083.5      8.3913      9.4526     77.5965     98.5507     18.3313     13.7077     21.2901      2.5223
         6084      8.3671      9.5561     77.0428     98.9815     17.7053      13.062     21.2326      2.5202
       6084.5      8.3657       9.437     78.0563    100.4052     16.3887     12.6191      20.441      2.5173
         6085      8.3188      9.6034     81.4854    102.5106     16.8017     12.7744     20.1053      2.5118
       6085.5      8.3188     10.6167     81.5156    103.5505     17.2252     13.0992     20.1699      2.5062
         6086      8.3188      10.563     81.3638     108.521     17.0687     13.4328     22.9041      2.5025
       6086.5      8.3188     10.4387     80.9361     111.094     15.7452     11.2024     22.9596      2.5146
         6087      8.3188      9.5581     80.0566    114.1304     13.8564     10.1384     22.4674      2.5245
       6087.5      8.2947      8.7104     80.7876     112.942     11.9874     10.1366     20.3411       2.532
         6088      8.3188       9.005     82.0785    112.7356     11.9491     10.6372     19.3495      2.5358
       6088.5      8.3193      9.5948     82.6721    113.7792     11.9491     11.5144     20.1652      2.5436
         6089      8.3887     10.6556     82.1794    114.3711     13.2441     12.4776     21.5391      2.5045
       6089.5      8.4155     10.9371     80.9226    111.2519      15.134     12.8257     21.6542      2.5004
         6090      8.4638     11.3208     80.6478    104.8439     17.2932     15.3998     21.5792      2.5076
       6090.5         8.5     10.5994     80.7553    100.9047     17.0394     15.0902     21.5594      2.5101
         6091      8.5121      9.2261     81.3918         100      16.583     13.8548     21.4855      2.5174
       6091.5      8.5362      9.5837     81.6194         100     16.1543     12.2807     22.3458       2.522
         6092      8.5362      10.173     81.4575     99.2754     17.9456     15.0212     22.7263      2.5241
       6092.5      8.5362      9.0489     81.4575     98.5574      26.202     16.4853      23.012      2.5283
         6093      8.5121      7.9555     81.5682     93.8943     38.2511     35.6792     23.0214      2.5401
       6093.5      8.5121      7.7683     80.1659     91.3247     55.8986    159.2444     23.0135      2.5476
         6094      8.4736      6.6772     73.7284     86.3201     69.7134    175.6754     23.2856      2.5659
       6094.5      8.4638      6.0851     68.3754     83.4444     71.8763     157.912     24.2255      2.5778
         6095       8.331      3.8564     57.7888     72.1632     38.3398      63.419     23.2114      2.6772
       6095.5      8.2173     -0.2943     56.0986     63.3254     23.6648     24.5329      20.987      2.7458
         6096      8.1739     -3.6197     62.6945     53.9559     21.7168     17.8311     14.8005      2.7231
       6096.5      8.1739     -3.1247      66.844     51.8559     16.5938     14.3697     10.4143      2.7009
         6097      8.1498      1.1618     75.8734     63.8595     16.0483     13.5629      9.7694      2.6719
       6097.5      8.1663      5.2129     80.2487     77.4574     17.7973     15.4071     13.0865      2.6099
         6098      8.2597      8.7297     84.1493     98.6631     19.7369     16.5959     15.7877      2.5452
       6098.5      8.2859     10.7823     84.4534    103.6657     21.8876     16.5959     20.2497      2.5173
         6099      8.3671     10.3928     84.2943    107.3528     19.7827     15.4683     23.1449      2.5081
       6099.5      8.3671     10.0529     84.0486    109.5983     17.5067     13.7089     23.3058      2.5079
         6100      8.3188     10.0544     84.0486    111.6065     16.1221     13.2543     23.1732      2.5054
       6100.5      8.3188     10.2722     84.0486    112.6812     16.1949     13.9427     22.7457       2.499
         6101      8.2947     10.3782     84.0486    114.0486     16.5546      14.426     22.2178      2.5053
       6101.5       8.343      9.3227     83.9676    115.4509     18.2592     13.8779     22.5329      2.5141
         6102      8.3913       9.388     83.9783     117.029     18.2712     13.3505     23.2289      2.5286
       6102.5      8.3913      9.4841     84.2501    116.7502     14.3106     12.8432     23.4112      2.5367
         6103      8.3913     10.4594     85.8122    114.5851     13.9895     12.1531      23.458      2.5139
       6103.5      8.3671     10.6671     86.0729    116.9837     14.1143     11.5077      23.616      2.5104
         6104      8.3671     10.7102     85.7024    122.0945     15.3748     12.4445     23.7677       2.508
       6104.5      8.3671     10.6675     84.7271     123.913     16.7477     14.9559     23.6903      2.5061
         6105      8.3671     10.5141     84.0245    120.7211     17.4444     16.3399     23.6384      2.4972
       6105.5      8.3671     10.4651     83.8057    118.9835     17.4444     15.6186     23.8752      2.4926
