#--------------------------------------------------#
#----------------DRILLING INFO, INC.---------------#
#---------------WWW.DRILLINGINFO.COM---------------#
#------------------COPYRIGHT 2018------------------#
#--------------------------------------------------#
#THIS FILE MAY BE USED ONLY IN ACCORDANCE WITH A CURRENT SUBSCRIPTION AGREEMENT BETWEEN
#THE USER AND DRILLING INFO, INC. NO PART OF THIS FILE MAY BE REPRODUCED, USED, COPIED,
#MODIFIED, PROPAGATED, OR DISTRIBUTED EXCEPT IN ACCORDANCE WITH THE SUBSCRIPTION
#AGREEMENT. UNAUTHORIZED USE OR DISTRIBUTION OF ALL OR ANY PART OF THIS FILE MAY VIOLATE
#COPYRIGHT, TRADEMARK, AND/OR OTHER LAWS AND IS SUBJECT TO CIVIL AS WELL AS CRIMINAL
#SANCTIONS.
#--------------------------------------------------#
#THIS FILE IS PROVIDED "AS-IS" AND ALL WARRANTIES ARE EXPRESSLY DISCLAIMED, WHETHER
#EXPRESS, ORAL, IMPLIED, STATUTORY OR OTHERWISE, INCLUDING ANY IMPLIED WARRANTY OF FITNESS
#FOR A PARTICULAR PURPOSE, MERCHANTABILITY, TITLE OR NON-INFRINGEMENT, AND ANY WARRANTIES
#ARISING BY VIRTUE OF CUSTOM OF TRADE OR COURSE OF DEALING.  FURTHER, DRILLING INFO,
#INC. AND ITS LICENSORS DO NOT REPRESENT OR WARRANT THAT THIS FILE WILL MEET USER'S
#REQUIREMENTS OR ARE SUITABLE FOR USER'S NEEDS OR THAT THE DATA OR RESULTS PROVIDED IN
#CONJUNCTION THEREWITH ARE CORRECT, ACCURATE, TIMELY OR RELIABLE. THESE DISCLAIMERS SHALL
#APPLY REGARDLESS OF ANY FAILURE OF ESSENTIAL PURPOSE OF ANY LIMITED REMEDY.  SOME
#JURISDICTIONS DO NOT ALLOW THE EXCLUSION OF CERTAIN WARRANTIES SO SOME OF THE ABOVE
#EXCLUSIONS MAY NOT APPLY. IN NO EVENT SHALL DRILLING INFO, INC. OR ANY OF ITS AFFILIATES
#BE LIABLE UNDER ANY LEGAL THEORY, WHETHER IN TORT (INCLUDING WITHOUT LIMITATION
#NEGLIGENCE), CONTRACT, STRICT LIABILITY, STATUTORY OR OTHERWISE, FOR ANY SPECIAL,
#INCIDENTAL, CONSEQUENTIAL, EXEMPLARY, PUNITIVE OR INDIRECT DAMAGE OF ANY KIND, INCLUDING
#WITHOUT LIMITATION LOSS OF REVENUE, PROFITS, GOODWILL, USE, AND/OR DATA OR THE COST OF
#PROCUREMENT OF SUBSTITUTE GOODS OR SERVICES, EVEN IF APPRISED OF THE POSSIBILITY OF SUCH
#DAMAGES IN ADVANCE.
#--------------------------------------------------#
# Exported from DI Transform
# DI Transform - A Product of Drillinginfo, Inc. - www.drillinginfo.com
#--------------------------------------------------#
#
~VERSION INFORMATION
 VERS.        2.0 : LAS ASCII STANDARD - VERSION 2.0
 WRAP.         NO : ONE LINE PER DEPTH STEP

~WELL INFORMATION
#MNEM.UNIT       DATA TYPE       INFORMATION
#---------       ---------       -----------
 STRT.ft           120 : Start Depth
 STOP.ft          9260 : Stop Depth
 STEP.ft           0.5 : Step Length
 NULL.         -999.25 : Null Value
 COMP.                 : Company
 WELL.          DRD_90 : Well Name
 FLD.                  : Field Name
 LOC.                  : Well Location
 CNTY.                 : County
 STAT.                 : State or Province
 CTRY.                 : Country
 SRVC.                 : Service Company
 DATE.                 : Date
 API.   42383308360000 : Well Identifier

~CURVE INFORMATION
#MNEM.UNIT       API CODE       CURVE DESCRIPTION
#---------       --------       -----------------
 DEPT.ft          : <Measured Depth>
 CAL.in           : Caliper
 DPHI.%           : Density Porosity
 DT.us/ft         : Sonic
 GR.gAPI          : Gamma Ray
 LLD.ohmm         : Deep Resistivity
 LLS.ohmm         : Shallow Resistivity
 NPHI.%           : Neutron Porosity
 RHOB.g/cm3       : Density

~PARAMETER INFORMATION
#MNEM.UNIT       VALUE       DESCRIPTION
#---------       -----       -----------
 EKB.ft      2720 : Elevation above MSL

~A       DEPT         CAL        DPHI          DT          GR         LLD         LLS        NPHI        RHOB
# ...
         7858      8.2947      7.6623     81.3577     98.8362     21.2068     13.1678     22.1389      2.5594
       7858.5      8.2947      7.4608     77.0094     93.2321     22.7626     14.0169     20.2719      2.5575
         7859      8.2464      6.6038     75.4187      85.785     23.5126     14.8845     18.8082       2.559
       7859.5      8.1981      4.9554     73.1256     85.2012     18.9945     14.8845     16.5043      2.6097
         7860      8.1739      3.0799      73.274      90.699     15.8946     11.6648     16.2787      2.6343
       7860.5      8.1739      4.7418      76.331     97.7695     14.8438      7.9879     17.0246      2.6268
         7861      8.1981      4.9187     78.4427     99.5341     13.0702      8.3916     19.2282      2.6188
       7861.5      8.2222      4.5652     80.3337    100.3623     12.3089      8.8157     19.6139      2.6159
         7862      8.2222      3.5263     80.6463    100.9223     12.7329      9.3683     21.1138      2.6139
       7862.5      8.2222      5.4289     80.5922     99.1578     13.6887     10.2272     20.7792      2.6102
         7863      8.2222      6.8809     79.9459     98.9836     14.1149     10.9065     19.4163      2.5738
       7863.5      8.2222      6.1628       77.93    100.3623     13.8643     10.6187     19.2471      2.5878
         7864      8.2464      4.9896     78.0102    100.7011     13.2112       8.996     19.2974      2.5899
       7864.5      8.2464      4.7559      80.174    102.1033     12.5889       8.924      19.773      2.6024
         7865      8.2385      6.1764     81.1231    105.8018     12.3196      9.1338      21.111      2.5842
       7865.5      8.2596      7.6188     83.4016    107.6087     12.6191      9.2924     21.5104      2.5716
         7866      8.2705      8.7003     83.7142    107.6087     13.2341      9.5501     22.4277      2.5624
       7866.5      8.2705      7.3667     83.7465    106.7805     13.8883     10.0407     22.9904       2.545
         7867      8.3188      7.1772     83.3469    105.7124     15.5258     10.5454     23.1086      2.5633
       7867.5      8.2947      7.1359     82.5544    101.9551     17.3151     11.0979     22.4941      2.5641
         7868      8.2947      6.8818     79.7778      97.539     21.9099     12.6968     21.6922       2.565
       7868.5      8.2947      6.6087     76.7519     95.1815     21.8207     12.4648     20.9249      2.5699
         7869      8.2464      5.3867     74.2989     92.8853     18.8118     10.0964     19.4076      2.5799
       7869.5      8.2222      4.0955     75.0275     91.6667     13.9562      8.4929     17.7195      2.6146
         7870      8.1739      1.8844     78.4544     92.2338     12.6458      7.1334     17.1604      2.6465
       7870.5      8.2222      4.7115     83.1504      102.08     12.0503       6.944     18.4082      2.6403
         7871      8.2464      4.1162     84.0812    108.9714     12.3089      7.6308     21.6479      2.6305
       7871.5      8.2702      3.9052     84.5344    113.3919     12.6918      8.4734     22.9016      2.6277
         7872      8.2705      3.6737      84.518    115.8904     13.0992      8.4734     23.8983      2.6179
       7872.5      8.2288       4.136     84.2054    114.5915     13.0649      8.4734     24.4456      2.6158
         7873      8.2222      5.1173     83.8179    111.8128     13.1137      8.4734     24.5214      2.6137
       7873.5      8.2222      5.9348     83.6437    110.8696     13.5916      8.5757     24.3381      2.6083
         7874      8.2464      5.8136     83.6437    110.8696     13.9403      8.8883     24.0724      2.5858
       7874.5      8.2464      5.6181     83.7247    110.7941     14.0027      9.3277     23.7674       2.577
         7875      8.2483      5.3205     83.8057    110.3937     14.7607      9.3605     23.7136      2.5902
       7875.5      8.2947       5.131      83.619    106.9027     15.5927      9.5334     23.5576      2.5938
         7876      8.2947      4.9215     81.4685    102.9145     17.3198     10.0046     22.8297      2.6014
       7876.5      8.2947      4.1243     78.3307     99.3881     20.3428     11.5089     21.5768      2.6085
         7877      8.3323      5.0349     75.9405     91.9649     21.8207     12.1348     19.4478      2.6127
       7877.5       8.343      3.9324     73.8857     89.6996     18.9531      11.427     17.3048      2.6167
         7878      8.3188      3.2388     73.4516     89.6554     17.6927      9.3782      17.267        2.62
       7878.5      8.3188      4.5215     77.4486     93.5455     16.1526       9.448     18.5265      2.6302
         7879      8.3188      6.8341     80.0405    102.0429     15.5927      9.7045     20.1364      2.6285
       7879.5      8.3188       7.621     82.0652    108.4666     15.3998      9.9433     21.3393      2.5845
         7880       8.343      7.4444     83.7205    113.2861     15.5927     10.0101     22.7355      2.5617
       7880.5       8.343       7.104     83.9676    114.7283     15.9177     10.0773      23.245      2.5559
         7881      8.3188       7.602     84.4199    114.1304     15.2094     10.0907     23.2009      2.5493
       7881.5      8.3188      7.8679     84.5254    113.2644     14.8354     10.0907     22.7678      2.5481
         7882       8.343      7.7596     84.4683    112.5868     14.4963     10.0907     22.6365      2.5481
       7882.5       8.343      7.5871     84.4777    112.6812     14.3573     10.0153     22.5288      2.5481
         7883       8.343      6.6952     84.3953    112.6812     15.1362      9.9094     22.3941      2.5481
       7883.5       8.343      6.5483     84.0475    112.6812      15.788      9.8045     22.3133      2.5701
         7884       8.343      6.0098     83.0388    111.3257     15.5927      9.7008     22.4071      2.5774
       7884.5       8.343      5.9799      82.753    107.0249     14.7915       9.557     22.6948        2.58
         7885      8.2947      6.4196     82.7842    106.6962     13.9204      9.3288     22.3961      2.5809
       7885.5      8.2705      7.2868     83.4476    111.2418     13.2647       9.091     21.7372      2.5837
         7886      8.3188      7.7564     84.3977    111.5942     13.5976      8.9952     22.6604      2.5724
       7886.5      8.3671      7.0334     85.5031    110.8363     13.7243      9.3828     22.5727      2.5579
         7887      8.3671      6.8948     84.5317    107.0859     14.1033      9.7871     22.1538      2.5661
       7887.5      8.3671        5.79      84.381    102.8099     16.6971     10.6757     22.2504      2.5682
         7888      8.3913      5.4858     83.4394     97.5523     17.5223     13.5792     21.7931      2.5735
       7888.5      8.3913      6.4994     82.5877     91.9502     21.8207     15.9851     20.9627      2.5835
         7889      8.3671      6.7329     78.0025     86.7784     22.5042     18.3977     19.8007        2.59
       7889.5      8.3671      7.5505     74.9578      81.023     43.8112      21.174     17.3956      2.5759
         7890      8.3671      6.9311     69.0526     75.2298     46.9528      28.728     16.1049       2.563
       7890.5      8.3659      6.2906     66.7521      71.853     38.6859     32.9614     12.8898      2.5619
         7891      8.2965      5.9646     66.2285     69.5652     27.9894     31.5922     11.5194      2.5694
       7891.5      8.2031      5.1115     68.8737     70.5773     25.1773     23.4445     11.4606      2.5797
         7892      8.1981      4.2148     70.5785     78.8585     24.8309     21.9896     13.2538      2.5866
       7892.5      8.1981      4.1493     73.0214     83.5023     24.4071      15.543     15.2979       2.602
         7893      8.2222      4.0213     73.6329     83.3333     24.0653     14.7069     15.4245      2.6126
       7893.5      8.2398      3.1544     74.3669     84.7181     23.2217     14.1149     14.6511      2.6149
         7894      8.2222      3.2751      77.659     91.8756     22.6831     14.1149     16.6554      2.6272
