#--------------------------------------------------#
#----------------DRILLING INFO, INC.---------------#
#---------------WWW.DRILLINGINFO.COM---------------#
#------------------COPYRIGHT 2018------------------#
#--------------------------------------------------#
#THIS FILE MAY BE USED ONLY IN ACCORDANCE WITH A CURRENT SUBSCRIPTION AGREEMENT BETWEEN
#THE USER AND DRILLING INFO, INC. NO PART OF THIS FILE MAY BE REPRODUCED, USED, COPIED,
#MODIFIED, PROPAGATED, OR DISTRIBUTED EXCEPT IN ACCORDANCE WITH THE SUBSCRIPTION
#AGREEMENT. UNAUTHORIZED USE OR DISTRIBUTION OF ALL OR ANY PART OF THIS FILE MAY VIOLATE
#COPYRIGHT, TRADEMARK, AND/OR OTHER LAWS AND IS SUBJECT TO CIVIL AS WELL AS CRIMINAL
#SANCTIONS.
#--------------------------------------------------#
#THIS FILE IS PROVIDED "AS-IS" AND ALL WARRANTIES ARE EXPRESSLY DISCLAIMED, WHETHER
#EXPRESS, ORAL, IMPLIED, STATUTORY OR OTHERWISE, INCLUDING ANY IMPLIED WARRANTY OF FITNESS
#FOR A PARTICULAR PURPOSE, MERCHANTABILITY, TITLE OR NON-INFRINGEMENT, AND ANY WARRANTIES
#ARISING BY VIRTUE OF CUSTOM OF TRADE OR COURSE OF DEALING.  FURTHER, DRILLING INFO,
#INC. AND ITS LICENSORS DO NOT REPRESENT OR WARRANT THAT THIS FILE WILL MEET USER'S
#REQUIREMENTS OR ARE SUITABLE FOR USER'S NEEDS OR THAT THE DATA OR RESULTS PROVIDED IN
#CONJUNCTION THEREWITH ARE CORRECT, ACCURATE, TIMELY OR RELIABLE. THESE DISCLAIMERS SHALL
#APPLY REGARDLESS OF ANY FAILURE OF ESSENTIAL PURPOSE OF ANY LIMITED REMEDY.  SOME
#JURISDICTIONS DO NOT ALLOW THE EXCLUSION OF CERTAIN WARRANTIES SO SOME OF THE ABOVE
#EXCLUSIONS MAY NOT APPLY. IN NO EVENT SHALL DRILLING INFO, INC. OR ANY OF ITS AFFILIATES
#BE LIABLE UNDER ANY LEGAL THEORY, WHETHER IN TORT (INCLUDING WITHOUT LIMITATION
#NEGLIGENCE), CONTRACT, STRICT LIABILITY, STATUTORY OR OTHERWISE, FOR ANY SPECIAL,
#INCIDENTAL, CONSEQUENTIAL, EXEMPLARY, PUNITIVE OR INDIRECT DAMAGE OF ANY KIND, INCLUDING
#WITHOUT LIMITATION LOSS OF REVENUE, PROFITS, GOODWILL, USE, AND/OR DATA OR THE COST OF
#PROCUREMENT OF SUBSTITUTE GOODS OR SERVICES, EVEN IF APPRISED OF THE POSSIBILITY OF SUCH
#DAMAGES IN ADVANCE.
#--------------------------------------------------#
# Exported from DI Transform
# DI Transform - A Product of Drillinginfo, Inc. - www.drillinginfo.com
#--------------------------------------------------#
#
~VERSION INFORMATION
 VERS.        2.0 : LAS ASCII STANDARD - VERSION 2.0
 WRAP.         NO : ONE LINE PER DEPTH STEP

~WELL INFORMATION
#MNEM.UNIT       DATA TYPE       INFORMATION
#---------       ---------       -----------
 STRT.ft           120 : Start Depth
 STOP.ft          9260 : Stop Depth
 STEP.ft           0.5 : Step Length
 NULL.         -999.25 : Null Value
 COMP.                 : Company
 WELL.          DRD_90 : Well Name
 FLD.                  : Field Name
 LOC.                  : Well Location
 CNTY.                 : County
 STAT.                 : State or Province
 CTRY.                 : Country
 SRVC.                 : Service Company
 DATE.                 : Date
 API.   42383308360000 : Well Identifier

~CURVE INFORMATION
#MNEM.UNIT       API CODE       CURVE DESCRIPTION
#---------       --------       -----------------
 DEPT.ft          : <Measured Depth>
 CAL.in           : Caliper
 DPHI.%           : Density Porosity
 DT.us/ft         : Sonic
 GR.gAPI          : Gamma Ray
 LLD.ohmm         : Deep Resistivity
 LLS.ohmm         : Shallow Resistivity
 NPHI.%           : Neutron Porosity
 RHOB.g/cm3       : Density

~PARAMETER INFORMATION
#MNEM.UNIT       VALUE       DESCRIPTION
#---------       -----       -----------
 EKB.ft      2720 : Elevation above MSL

~A       DEPT         CAL        DPHI          DT          GR         LLD         LLS        NPHI        RHOB
# ...
       5193.5      8.4288      3.7266      64.562     66.4659     12.8104     11.1688      14.636      2.5829
         5194      8.4155       3.678     66.9974      74.543      8.6515      7.6336     14.8444       2.606
       5194.5      8.4155      6.5502      72.615      79.378      7.6259      7.2839     15.0529       2.617
         5195      8.5121       9.048     74.0251     86.3034      8.0883      8.3105     15.2928      2.5498
       5195.5      8.5362      9.3545     74.4187     90.5132      9.2803      8.4016     15.6852      2.5287
         5196      8.5362     10.6211     74.7314     94.9186     10.6477      9.6194     16.8137      2.5215
       5196.5      8.5362     10.8405     77.5207     99.1548     12.2164     10.1164     18.2473      2.5162
         5197      8.5362     10.2919      78.792    102.7308     13.7357     11.2739     19.0466      2.5162
       5197.5      8.5362      9.3681     79.2846    103.6232     14.5026     11.7111     20.3226      2.5095
         5198      8.5362      9.1728     78.4615     100.172     15.3122     11.5662     20.7606      2.4949
       5198.5      8.5362      9.2647      76.507     95.7473     12.5655      11.444     20.2373      2.5238
         5199      8.5117      9.4673      74.316     85.3165     10.1891     10.3881     17.4885      2.5243
       5199.5      8.4396      9.5948     73.8243     83.7363      8.7454      8.3686     16.3983      2.5243
         5200      8.4879      9.1551     74.3175     85.0572      7.7257      8.0419     17.4077       2.526
       5200.5      8.4879      8.8887     75.7968     86.4595      7.4961      7.8563     18.0507      2.5281
         5201      8.5724      7.3563     76.8745      88.224      7.4107      7.3088     19.3377      2.5318
       5201.5       8.657      7.1668      77.855     89.5786      7.3263      7.3892     20.0018      2.5486
         5202       8.657      6.7359     78.2186     92.4777      7.2428      7.3892     20.7105      2.5699
       5202.5       8.657      8.0361     78.2894     93.8406      7.3634      7.3892     20.8112      2.5606
         5203       8.657      8.7036     77.2538     92.2255      8.1098      7.4315     20.8592      2.5606
       5203.5       8.657      7.2407     74.4505     88.5699      9.2766      8.8474     20.9723      2.5455
         5204      8.6396      4.9819     71.7542     83.0951     10.6268     12.0107     20.4266      2.5323
       5204.5      8.5703       5.069     70.5039     79.7064     12.4834     12.5116     18.7689      2.5614
         5205       8.501      5.2565     72.1465     87.4266      14.665     13.4242     17.2362      2.5934
       5205.5      8.4879      7.2851      76.168     96.6056     16.3774      13.308     19.9508      2.5934
         5206      8.5121      9.4957     78.6107    101.0146     15.2196     13.1917     21.6778      2.5702
       5206.5      8.5621     10.1526     80.5717     98.3607     11.1566     11.7883     22.7385      2.5242
         5207      8.6072      8.7055     79.0636     92.0941     10.7549     11.0781     22.4243      2.5364
       5207.5      8.6087      6.0812     77.1108     88.5433     10.7006     10.4687     21.4173      2.5385
         5208      8.6087      4.1382     75.6601     85.9854     10.7832      9.4522     20.1977      2.5419
       5208.5      8.6087      3.1903     72.3077     84.3022       11.05      9.0069     19.0563      2.5703
         5209      8.6087      3.6003     70.8794     80.6447     11.3234      8.5827     16.9733       2.605
       5209.5      8.6087      3.8004     70.7248     80.5402     10.0296      8.3686     16.3197      2.6217
         5210       8.657      5.4021     71.1774     85.0513       9.656      7.4408     16.6133      2.6276
       5210.5      8.6819      7.3493     74.2136      88.083      9.2437      6.9782     17.1987      2.6128
         5211      8.7754      6.8542     74.6367     90.2174      8.9059      6.3915     17.2266       2.594
       5211.5      8.8261      6.6463     74.7874     88.9337       8.671      6.5244      17.077       2.563
         5212      8.8261      6.3756     75.0191     86.7241      8.4422      6.5244     18.0395      2.5624
       5212.5      8.8261      5.9608     75.2507     85.5072      8.2195      6.5244     18.4357      2.5729
         5213      8.8502       6.932     75.5665     85.1449      7.7518      6.4454     18.5435      2.5733
       5213.5      8.8502      7.5094     76.8672     85.1449      7.3353      6.4437     18.6512      2.5693
         5214      8.8502      7.7694     77.5652     85.5072      7.1874      6.2284     19.3645       2.564
       5214.5      8.8502      6.8699     78.2488     85.5072      7.0425      5.9351      20.051      2.5616
         5215      8.8502      6.0079     78.5425     86.5444      6.9912      5.6555     20.0514      2.5606
       5215.5      8.8261      6.5481     78.6235     86.5942      6.9912      5.6193      19.407      2.5778
         5216      8.8261      6.8227     79.4635     87.8996      6.9912      5.5497     20.3812      2.5735
       5216.5      8.8502      7.0174     79.5142      89.931      6.9912      5.5497     21.0747      2.5708
         5217      8.8178      6.1852     79.5142     91.0664      6.9912      5.5497     20.6953      2.5687
       5217.5      8.8019      5.5692     79.4367     91.3043      6.7129      5.5497     20.4823      2.5663
         5218      8.8019      5.5161     79.5142     91.3346       6.445      5.5497     20.1995      2.5808
       5218.5      8.7778      4.7974     79.7731     91.6835      6.1877      5.5497     19.5129      2.5866
         5219      8.7778      4.7538     80.1247     90.6436      6.1065      5.4476      19.459      2.5896
       5219.5      8.7778      4.2314     80.4373     90.2174      6.0097      5.3463      19.459      2.5938
         5220      8.7778      3.9554     80.4858     91.1464      5.8522      5.2642     19.5432      2.6077
       5220.5      8.7778       4.856     80.8197      91.824      5.6987      5.0154     19.8909      2.6209
         5221      8.7778      5.2254     81.1323     92.5567      5.5493       4.866     20.0795      2.6093
       5221.5       8.782      6.8507     81.8899     94.2661      5.4038      4.7284     20.9682      2.5943
         5222      8.8019      7.0401     82.7293     96.9446      5.2621      4.5963     22.1686       2.582
       5222.5      8.8019      7.2296     83.9019     97.8261      4.9652      4.5695     23.3859      2.5632
         5223      8.8019      7.4191     85.3498     98.1105      4.8431      4.5428     24.4867      2.5611
       5223.5      8.8019      7.1291     86.4032     98.1884      4.9284      4.5257     24.8798      2.5604
         5224      8.8019      5.8958     86.8016     94.7005      5.0152      4.5257      25.641      2.5603
       5224.5      8.8019      5.1092     86.7988     92.2143      5.1385      4.7359     26.6218      2.5717
         5225      8.7955      4.9197     85.7748     88.3464      6.3629      5.4256     26.9482      2.5885
       5225.5      8.7503      4.6767     81.0897     85.0711      7.6123      6.0838     26.5277      2.5957
         5226      8.6569      5.5219     75.7588      80.795      8.7794      6.9265     22.9037      2.6073
       5226.5      8.6299      6.3161     74.7809     84.9669     10.1252      7.8858     20.3274      2.5888
         5227      8.7233      8.3744     75.0992     92.8374      11.677      9.7063     19.9195      2.5796
       5227.5      8.7778     11.4728     80.9537    100.8933     13.1315     11.2388     22.3093      2.5615
         5228      8.7778     10.7642     82.1131    102.8006     14.6018     12.2123     22.7835      2.5097
       5228.5      8.7778     10.2693     82.5101    103.6232      14.073     12.4631     22.6423      2.4893
         5229      8.7778       9.625     81.4575    103.6232     13.1147     12.4631     22.3672      2.5034
       5229.5      8.8019     10.0556     81.7596    103.9504      12.222     11.5975     22.7217      2.5144
