#--------------------------------------------------#
#----------------DRILLING INFO, INC.---------------#
#---------------WWW.DRILLINGINFO.COM---------------#
#------------------COPYRIGHT 2018------------------#
#--------------------------------------------------#
#THIS FILE MAY BE USED ONLY IN ACCORDANCE WITH A CURRENT SUBSCRIPTION AGREEMENT BETWEEN
#THE USER AND DRILLING INFO, INC. NO PART OF THIS FILE MAY BE REPRODUCED, USED, COPIED,
#MODIFIED, PROPAGATED, OR DISTRIBUTED EXCEPT IN ACCORDANCE WITH THE SUBSCRIPTION
#AGREEMENT. UNAUTHORIZED USE OR DISTRIBUTION OF ALL OR ANY PART OF THIS FILE MAY VIOLATE
#COPYRIGHT, TRADEMARK, AND/OR OTHER LAWS AND IS SUBJECT TO CIVIL AS WELL AS CRIMINAL
#SANCTIONS.
#--------------------------------------------------#
#THIS FILE IS PROVIDED "AS-IS" AND ALL WARRANTIES ARE EXPRESSLY DISCLAIMED, WHETHER
#EXPRESS, ORAL, IMPLIED, STATUTORY OR OTHERWISE, INCLUDING ANY IMPLIED WARRANTY OF FITNESS
#FOR A PARTICULAR PURPOSE, MERCHANTABILITY, TITLE OR NON-INFRINGEMENT, AND ANY WARRANTIES
#ARISING BY VIRTUE OF CUSTOM OF TRADE OR COURSE OF DEALING.  FURTHER, DRILLING INFO,
#INC. AND ITS LICENSORS DO NOT REPRESENT OR WARRANT THAT THIS FILE WILL MEET USER'S
#REQUIREMENTS OR ARE SUITABLE FOR USER'S NEEDS OR THAT THE DATA OR RESULTS PROVIDED IN
#CONJUNCTION THEREWITH ARE CORRECT, ACCURATE, TIMELY OR RELIABLE. THESE DISCLAIMERS SHALL
#APPLY REGARDLESS OF ANY FAILURE OF ESSENTIAL PURPOSE OF ANY LIMITED REMEDY.  SOME
#JURISDICTIONS DO NOT ALLOW THE EXCLUSION OF CERTAIN WARRANTIES SO SOME OF THE ABOVE
#EXCLUSIONS MAY NOT APPLY. IN NO EVENT SHALL DRILLING INFO, INC. OR ANY OF ITS AFFILIATES
#BE LIABLE UNDER ANY LEGAL THEORY, WHETHER IN TORT (INCLUDING WITHOUT LIMITATION
#NEGLIGENCE), CONTRACT, STRICT LIABILITY, STATUTORY OR OTHERWISE, FOR ANY SPECIAL,
#INCIDENTAL, CONSEQUENTIAL, EXEMPLARY, PUNITIVE OR INDIRECT DAMAGE OF ANY KIND, INCLUDING
#WITHOUT LIMITATION LOSS OF REVENUE, PROFITS, GOODWILL, USE, AND/OR DATA OR THE COST OF
#PROCUREMENT OF SUBSTITUTE GOODS OR SERVICES, EVEN IF APPRISED OF THE POSSIBILITY OF SUCH
#DAMAGES IN ADVANCE.
#--------------------------------------------------#
# Exported from DI Transform
# DI Transform - A Product of Drillinginfo, Inc. - www.drillinginfo.com
#--------------------------------------------------#
#
~VERSION INFORMATION
 VERS.        2.0 : LAS ASCII STANDARD - VERSION 2.0
 WRAP.         NO : ONE LINE PER DEPTH STEP

~WELL INFORMATION
#MNEM.UNIT       DATA TYPE       INFORMATION
#---------       ---------       -----------
 STRT.ft           120 : Start Depth
 STOP.ft          9260 : Stop Depth
 STEP.ft           0.5 : Step Length
 NULL.         -999.25 : Null Value
 COMP.                 : Company
 WELL.          DRD_90 : Well Name
 FLD.                  : Field Name
 LOC.                  : Well Location
 CNTY.                 : County
 STAT.                 : State or Province
 CTRY.                 : Country
 SRVC.                 : Service Company
 DATE.                 : Date
 API.   42383308360000 : Well Identifier

~CURVE INFORMATION
#MNEM.UNIT       API CODE       CURVE DESCRIPTION
#---------       --------       -----------------
 DEPT.ft          : <Measured Depth>
 CAL.in           : Caliper
 DPHI.%           : Density Porosity
 DT.us/ft         : Sonic
 GR.gAPI          : Gamma Ray
 LLD.ohmm         : Deep Resistivity
 LLS.ohmm         : Shallow Resistivity
 NPHI.%           : Neutron Porosity
 RHOB.g/cm3       : Density

~PARAMETER INFORMATION
#MNEM.UNIT       VALUE       DESCRIPTION
#---------       -----       -----------
 EKB.ft      2720 : Elevation above MSL

~A       DEPT         CAL        DPHI          DT          GR         LLD         LLS        NPHI        RHOB
# ...
       2492.5      8.0844     -999.25     42.8987     27.9429     -999.25     -999.25     32.5006     -999.25
         2493      8.0841     -999.25     51.3495     27.2212     -999.25     -999.25     32.5006     -999.25
       2493.5      8.0841     -999.25     58.9474      26.087     -999.25     -999.25     32.1276     -999.25
         2494      8.0841     -999.25     58.9474     26.9884     -999.25     -999.25     30.5224     -999.25
       2494.5      8.0841     -999.25     58.9474     28.2609     -999.25     -999.25     28.9365     -999.25
         2495      8.0841     -999.25     58.8664     28.6232     -999.25     -999.25      27.424     -999.25
       2495.5      8.0841     -999.25     58.2516     28.9855     -999.25     -999.25     27.1689     -999.25
         2496      8.0841     -999.25     56.9735     28.9855     -999.25     -999.25     26.9184     -999.25
       2496.5      8.1013     -999.25     60.2089     29.3478     -999.25     -999.25     28.2061     -999.25
         2497      8.1185     -999.25     61.7048     29.3478     -999.25     -999.25     27.7947     -999.25
       2497.5      8.1529     -999.25     61.7519       29.92     -999.25     -999.25     26.3249     -999.25
         2498      8.2045     -999.25     61.7004     30.0725     -999.25     -999.25     25.2143     -999.25
       2498.5      8.2541     -999.25     58.8512     29.7101     -999.25     -999.25     24.6887     -999.25
         2499      8.2733     -999.25     56.3969     29.6415     -999.25     -999.25     25.3011     -999.25
       2499.5      8.2733     -999.25     56.1943     29.3262     -999.25     -999.25     25.7076     -999.25
         2500      8.2733     -1.0314     56.1943     28.2863     -999.25     -999.25      25.155     -999.25
       2500.5      8.2561     -0.5198     56.0258     27.8261     -999.25     -999.25     24.8423     -999.25
         2501      8.2561      4.9597     55.7131     28.6232     -999.25     -999.25     24.7188     -999.25
       2501.5      8.2561     11.6599     53.2429     28.6232     -999.25     -999.25     25.7005     -999.25
         2502      8.2526     12.6219     51.9573     28.8368     -999.25     -999.25      26.705     -999.25
       2502.5      8.2389     12.4725     56.5992     26.7099     -999.25     -999.25     27.5955     -999.25
         2503      8.2389     12.4309      56.244      26.087     -999.25     -999.25     27.6536      2.4657
       2503.5      8.2217     12.5224     55.9514      26.087     -999.25     -999.25     27.8977      2.4636
         2504      8.1892     12.3309     55.8793      26.087     -999.25     -999.25     28.1383       2.462
       2504.5      8.1742     12.8802     57.2445     25.4488     -999.25     -999.25     28.6418      2.4611
         2505      8.1701     13.3048     59.7823     25.3623     -999.25     -999.25     -999.25      2.4613
       2505.5      8.1529     13.7953     64.2104     25.3623     -999.25     -999.25     -999.25      2.4471
         2506      8.1465      14.417      65.571          25     -999.25     -999.25     -999.25      2.4392
       2506.5      8.1357     15.0388     64.7438          25     -999.25     -999.25     -999.25      2.4394
         2507      8.1376     14.9526     62.7144     25.3623     -999.25     -999.25     -999.25      2.4161
       2507.5      8.1873      9.8863     58.4505     25.7246     -999.25     -999.25     -999.25      2.5572
         2508      8.3963     11.7798     57.7694     30.1466     -999.25     -999.25     -999.25      2.5593
       2508.5      9.3132     12.4073     58.9359     31.7835     -999.25     -999.25     -999.25      2.5667
         2509      9.5552     11.8777     59.2485     33.1857     -999.25      7.5266     -999.25      2.5734
       2509.5      9.6827     10.8904     59.4332      34.058     10.0937      7.6357     27.5149      2.5027
         2510      9.7762     10.2203     59.6834     33.9373     10.1047      7.7464     26.5502      2.4973
       2510.5      9.7632     10.0046     59.6761     33.6221     10.1158      7.8587     24.7352      2.4973
         2511      9.6957      9.2614     59.6629     32.5821     10.1268      7.9726     23.6479      2.5003
       2511.5      9.7184       8.031     59.5142      31.009     10.1379      8.0881     23.8183      2.5467
         2512      9.8557      7.9043     59.4691     30.0049      10.149      8.2054     24.2321      2.5343
       2512.5     10.5334      9.0658     59.8985     29.1001     10.1601      8.3243     25.0089      2.5364
         2513     10.6028     10.1277     60.2112     28.2609     10.1712       8.445      25.712      2.5333
       2513.5     10.6852      9.3598     60.6756     28.2609     10.1823      8.5674     26.1289      2.5269
         2514     10.7826      8.2734     61.6711     28.6232     10.1934      8.6916     27.3093      2.5171
       2514.5     10.7399      8.5127     62.9304     27.9581     10.1914      8.8175     29.5292      2.5135
         2515     10.6377      9.8422     63.4951     27.8986     10.0862      8.9454     29.8513      2.5135
       2515.5     10.6536      9.2809     61.5702     27.8986     10.1355       9.075      29.448      2.5163
         2516     10.6314      9.2791     60.5409     28.2609     10.3018      9.1712     28.0342      2.5258
       2516.5     10.6301     10.1352     61.2287     26.5779     10.4709      9.1712     27.3445      2.5252
         2517     10.6301      8.7872     61.8818      25.538     11.4598      9.1712     26.9988      2.5126
       2517.5     10.6301      8.6805     61.5385     24.4283     11.8565      9.1712      26.688      2.5041
         2518     10.6301     10.0412     61.3765     22.1438     12.1336      9.1712     26.4602      2.5012
       2518.5     10.6645     11.4687     60.4858     20.6067     12.4774      9.1272     27.6388      2.4979
         2519     10.6645     11.3949     61.7329     19.5668     12.6043      8.5699      28.399      2.4927
       2519.5     10.6473     12.0969     62.5913     19.2029      12.979      8.0769     28.6611      2.4864
         2520     10.6473     11.8183     62.5911     18.8406       13.47      7.7082     28.1582      2.4777
       2520.5     10.6817     12.1239     62.5911     19.2029     12.1025      7.3707     24.9048       2.498
         2521     10.6563     12.3769     62.7032     19.0132     10.3479      7.1299     22.9365      2.4784
       2521.5     10.6593     11.7681     62.8141     20.0531      9.1616       6.988     22.4749      2.4757
         2522     10.7162     10.7295     62.5739      21.093      9.5811      7.2053       22.36      2.4911
       2522.5     10.7506      10.265     61.8337     22.4952     10.0198      7.4295     22.5873      2.5148
         2523     10.7506     10.1735     59.3419     24.0708      10.379      7.6606     22.6365      2.5268
       2523.5     10.7363      9.1686     58.6235      23.913     10.8325      7.8989     22.8871      2.5353
         2524     10.7016      8.4784     58.5789     23.1884     11.6007      8.1446     23.6207      2.5395
       2524.5     10.6473      8.2342     57.8383     22.1014     11.9942      8.3979     25.0917       2.544
         2525     10.5586      6.5269     58.4615     21.7391     12.4171      8.6592     27.2075      2.5523
       2525.5     10.4475      8.1151     58.5425     22.1014     12.9571      8.9286     27.5539      2.5696
         2526     10.2526      7.1695     57.3588     23.2529     13.3082      9.2063     27.5565      2.5876
       2526.5      9.8355      6.3502     58.3806     23.5507     13.6192      9.2452     25.7933      2.6347
         2527      9.5492      2.2052     58.3806      23.913     13.8823      8.8764     22.9621      2.6516
       2527.5      9.1653      2.1213     58.5425      23.913     14.2324      8.5224     21.5314      2.6314
         2528      9.0189      1.8326     58.7045     24.2754      13.907      8.1001     20.8054      2.6241
       2528.5      8.9433      3.5269     58.8907      23.913     13.0224      7.6289     20.2384      2.6048
