#--------------------------------------------------#
#----------------DRILLING INFO, INC.---------------#
#---------------WWW.DRILLINGINFO.COM---------------#
#------------------COPYRIGHT 2018------------------#
#--------------------------------------------------#
#THIS FILE MAY BE USED ONLY IN ACCORDANCE WITH A CURRENT SUBSCRIPTION AGREEMENT BETWEEN
#THE USER AND DRILLING INFO, INC. NO PART OF THIS FILE MAY BE REPRODUCED, USED, COPIED,
#MODIFIED, PROPAGATED, OR DISTRIBUTED EXCEPT IN ACCORDANCE WITH THE SUBSCRIPTION
#AGREEMENT. UNAUTHORIZED USE OR DISTRIBUTION OF ALL OR ANY PART OF THIS FILE MAY VIOLATE
#COPYRIGHT, TRADEMARK, AND/OR OTHER LAWS AND IS SUBJECT TO CIVIL AS WELL AS CRIMINAL
#SANCTIONS.
#--------------------------------------------------#
#THIS FILE IS PROVIDED "AS-IS" AND ALL WARRANTIES ARE EXPRESSLY DISCLAIMED, WHETHER
#EXPRESS, ORAL, IMPLIED, STATUTORY OR OTHERWISE, INCLUDING ANY IMPLIED WARRANTY OF FITNESS
#FOR A PARTICULAR PURPOSE, MERCHANTABILITY, TITLE OR NON-INFRINGEMENT, AND ANY WARRANTIES
#ARISING BY VIRTUE OF CUSTOM OF TRADE OR COURSE OF DEALING.  FURTHER, DRILLING INFO,
#INC. AND ITS LICENSORS DO NOT REPRESENT OR WARRANT THAT THIS FILE WILL MEET USER'S
#REQUIREMENTS OR ARE SUITABLE FOR USER'S NEEDS OR THAT THE DATA OR RESULTS PROVIDED IN
#CONJUNCTION THEREWITH ARE CORRECT, ACCURATE, TIMELY OR RELIABLE. THESE DISCLAIMERS SHALL
#APPLY REGARDLESS OF ANY FAILURE OF ESSENTIAL PURPOSE OF ANY LIMITED REMEDY.  SOME
#JURISDICTIONS DO NOT ALLOW THE EXCLUSION OF CERTAIN WARRANTIES SO SOME OF THE ABOVE
#EXCLUSIONS MAY NOT APPLY. IN NO EVENT SHALL DRILLING INFO, INC. OR ANY OF ITS AFFILIATES
#BE LIABLE UNDER ANY LEGAL THEORY, WHETHER IN TORT (INCLUDING WITHOUT LIMITATION
#NEGLIGENCE), CONTRACT, STRICT LIABILITY, STATUTORY OR OTHERWISE, FOR ANY SPECIAL,
#INCIDENTAL, CONSEQUENTIAL, EXEMPLARY, PUNITIVE OR INDIRECT DAMAGE OF ANY KIND, INCLUDING
#WITHOUT LIMITATION LOSS OF REVENUE, PROFITS, GOODWILL, USE, AND/OR DATA OR THE COST OF
#PROCUREMENT OF SUBSTITUTE GOODS OR SERVICES, EVEN IF APPRISED OF THE POSSIBILITY OF SUCH
#DAMAGES IN ADVANCE.
#--------------------------------------------------#
# Exported from DI Transform
# DI Transform - A Product of Drillinginfo, Inc. - www.drillinginfo.com
#--------------------------------------------------#
#
~VERSION INFORMATION
 VERS.        2.0 : LAS ASCII STANDARD - VERSION 2.0
 WRAP.         NO : ONE LINE PER DEPTH STEP

~WELL INFORMATION
#MNEM.UNIT       DATA TYPE       INFORMATION
#---------       ---------       -----------
 STRT.ft           120 : Start Depth
 STOP.ft          9260 : Stop Depth
 STEP.ft           0.5 : Step Length
 NULL.         -999.25 : Null Value
 COMP.                 : Company
 WELL.          DRD_90 : Well Name
 FLD.                  : Field Name
 LOC.                  : Well Location
 CNTY.                 : County
 STAT.                 : State or Province
 CTRY.                 : Country
 SRVC.                 : Service Company
 DATE.                 : Date
 API.   42383308360000 : Well Identifier

~CURVE INFORMATION
#MNEM.UNIT       API CODE       CURVE DESCRIPTION
#---------       --------       -----------------
 DEPT.ft          : <Measured Depth>
 CAL.in           : Caliper
 DPHI.%           : Density Porosity
 DT.us/ft         : Sonic
 GR.gAPI          : Gamma Ray
 LLD.ohmm         : Deep Resistivity
 LLS.ohmm         : Shallow Resistivity
 NPHI.%           : Neutron Porosity
 RHOB.g/cm3       : Density

~PARAMETER INFORMATION
#MNEM.UNIT       VALUE       DESCRIPTION
#---------       -----       -----------
 EKB.ft      2720 : Elevation above MSL

~A       DEPT         CAL        DPHI          DT          GR         LLD         LLS        NPHI        RHOB
# ...
         3405      9.4716     25.0605     84.0928     87.6812     13.2775     10.4701     30.0838      2.2417
       3405.5      9.3401     20.9158     84.6666     90.3783     11.4156      8.5849     27.9504      2.3263
         3406      8.8587      9.8013     84.2575     94.9935     10.3405      8.1042     26.3715      2.4531
       3406.5      8.7653      6.9123     83.7438    101.2002      8.7084      7.6792     25.9678      2.5515
         3407      8.6718      8.6657     83.2101    105.5754      8.3341      6.4976     25.0191      2.5477
       3407.5       8.657      9.1787     84.1298    104.9789      7.4624       6.364     26.5141      2.5261
         3408       8.657      7.2048     86.3527    102.4432      7.1851      6.0486     26.5679      2.5446
       3408.5       8.657      5.8395     87.8067    100.5443      6.5276      5.7637     26.4064      2.5688
         3409      8.6812      5.9054      89.845     99.6377       6.364      5.3463     25.8061      2.5825
       3409.5      8.6812      5.9608     90.1577      98.283      6.1856      5.2802     25.2356      2.5864
         3410      8.6812      5.2327     90.4453     97.4638      6.2534      5.2802     25.6009      2.5917
       3410.5      8.6812      4.7527     90.5126     96.9278      6.2853      5.2802      26.417      2.5971
         3411      8.7379      6.5973     90.3644     95.8879      6.2342      5.2802      26.638      2.5864
       3411.5      8.8072      6.7442     90.2024     94.5652       6.364      5.2802     26.1909      2.5711
         3412      8.8261      6.7486     89.9595     95.7496      6.4437      5.3463     26.1958       2.569
       3412.5      8.8261      6.8421     89.8289     98.3404      6.6062      5.3463     26.2987      2.5669
         3413      8.8261      7.9625      89.836    101.2952       6.537      5.4133     26.4511      2.5624
       3413.5      8.8261      9.0992     90.2432    104.2392      6.5244      5.4133     27.0553      2.5381
         3414      8.8261      8.7026     91.0273    104.2191      6.5734      5.3463     27.0219      2.5197
       3414.5      8.8261      8.6321     91.5408    102.4997      6.6062      5.3463     26.5388      2.5344
         3415      8.8261      8.5067     91.5046     98.8005      6.4437      5.3463     26.2448      2.5364
       3415.5      8.8261      8.6135     90.4001     98.9785      6.4437      5.2802     26.4161      2.5364
         3416      8.8261      8.7515     90.0696    100.9334      6.5244      5.2871     26.7633      2.5348
       3416.5      8.8261      8.7515     89.9189    102.5076      6.6062      5.3463     27.4792      2.5327
         3417      8.8261      8.6047     89.9889    101.8873      6.5244      5.4036     27.6338      2.5323
       3417.5      8.8261      8.5561     90.3511     99.9416      6.6062      5.3463     27.6989      2.5335
         3418      8.8261      8.5067     91.3429      98.913      6.6062      5.2405     27.6164      2.5356
       3418.5      8.8261      8.4381     91.7704     97.6806      6.4437      4.9937     27.0036      2.5377
         3419      8.8019      8.3599     92.2111     97.5622       6.364      4.7585     26.3525      2.5391
       3419.5      8.8019      8.3668     92.5237     99.1199      6.1626      4.6623     26.5024      2.5391
         3420      8.8019      8.5073     92.5506      98.184      5.6896      4.6046     26.8989      2.5391
       3420.5      8.8019      8.5125     92.2939     96.7818      5.6888      4.6046     28.2311      2.5375
         3421      8.8019      8.4209     91.8825     94.5652      5.6801      4.6046     28.6416      2.5364
       3421.5      8.8019      8.4393     91.4928     93.9774      5.7609      4.6623     28.8705      2.5364
         3422      8.8019      8.6288     89.2395     92.5751      6.2556      4.6623     28.3889      2.5364
       3422.5      8.7778      8.5379     88.1774     91.3043      6.3242      4.9305     27.6255      2.5364
         3423      8.7778      8.4088     86.5676     91.2199      6.6367      5.2186     27.4171      2.5364
       3423.5      8.7778      8.3599     85.9648     90.5797      6.6062      5.3463     27.2625       2.537
         3424      8.7778      8.4565      85.668     89.3261      7.3089      5.4895     26.1924      2.5378
       3424.5      8.7091      8.0991     85.4835     87.7379       7.389      5.5497     25.2157      2.5391
         3425      8.6812      7.1605     84.8368     86.9565      7.4817      5.5497     25.0215      2.5391
       3425.5      8.6812      7.3113     84.3724     86.5942      7.5379      5.6193     24.4676      2.5395
         3426      8.6812      7.2827     84.2218      87.121      7.4817      5.6896     24.5997      2.5445
       3426.5       8.657      7.7082     84.2915     86.9565      7.6703      5.8697     24.9159      2.5575
         3427       8.657       6.853     84.2105     86.9565      7.4817      6.1599     24.9418       2.558
       3427.5      8.6586      6.0066     84.2105     86.5709      7.5056      6.2853     24.7586       2.558
         3428      8.7077      5.7714     84.1858     85.8696      7.5879      6.2853     24.5788      2.5585
       3428.5      8.6329      4.2509      84.224     85.1449      7.5754      6.2853     24.5109       2.566
         3429      8.6329      3.7563     84.3747     86.1141      7.4817      6.2853     25.4383       2.577
       3429.5      8.6087      4.1382     85.2945     86.7591      7.5754      6.2853     25.7307      2.5868
         3430      8.6087      4.1697     85.3441     85.2064      7.5754      6.2853     24.8649      2.6058
       3430.5      8.5845      4.9326     85.4251     82.8677      7.4817      6.2853     24.5792      2.6108
         3431      8.5845      5.8292     85.4251     80.4348      7.5391      6.2853     24.5836      2.6119
       3431.5      8.5604      6.7235     85.7219     80.4348      7.5754      6.2853     24.7382      2.6101
         3432      8.5604      6.6959     86.7913     79.3856      7.4817      6.2853     24.8446      2.6018
       3432.5      8.5604      5.9608     87.4782     78.9855      7.3892      6.2841     24.8984      2.5853
         3433      8.5604      6.0409     88.4211     80.6319      7.3892      6.2076     25.4908      2.5751
       3433.5      8.5604      6.0098      88.502      82.971      7.2769      6.2076     25.5447      2.5705
         3434      8.5604      5.8445     88.4211     82.8347      7.3567      6.2076     25.4908      2.5742
       3434.5      8.5604      5.9964     88.0571     82.2464      7.3892      6.2076     24.7236      2.5763
         3435      8.5604      7.0061     87.2583     82.1618      7.2978      6.2076     24.5151      2.5786
       3435.5      8.5604      6.9939     86.9188     80.0772      7.3892      6.2076     24.4137      2.5828
         3436      8.5604      6.7372     86.0125      79.762      7.3892      6.2192     23.9214      2.5749
       3436.5      8.5362      6.7419     85.3487     79.4467      7.3001       6.364      23.552      2.5682
         3437      8.5121      7.4439      83.319     78.9855      7.4817       6.364      23.552      2.5656
       3437.5      8.5121      7.9056     82.6318     78.6232      7.8762      6.5065     23.6849      2.5635
         3438      8.5121      5.1285     82.3908     78.1386      8.3686      6.9914     23.5338      2.5605
       3438.5      8.4879      5.5304     82.4291     77.1739      8.4734      6.9914     22.9138      2.5674
         3439      8.4879      5.7198     82.8541     77.1739      8.4734      6.9914     22.5784      2.5699
       3439.5      8.4765      5.8629     82.9017     76.8116      8.4734      6.9914     22.4749      2.5812
         3440      8.4638      6.0697     80.9612     75.7905      8.3686      6.9715     23.0257      2.5889
       3440.5      8.4638      4.1646     79.3932     73.7201      8.4771      7.2107     23.4107      2.5903
         3441      8.4638      3.9233     74.5063     72.2614      9.0588      7.2978     23.7437      2.5903
