#--------------------------------------------------#
#----------------DRILLING INFO, INC.---------------#
#---------------WWW.DRILLINGINFO.COM---------------#
#------------------COPYRIGHT 2018------------------#
#--------------------------------------------------#
#THIS FILE MAY BE USED ONLY IN ACCORDANCE WITH A CURRENT SUBSCRIPTION AGREEMENT BETWEEN
#THE USER AND DRILLING INFO, INC. NO PART OF THIS FILE MAY BE REPRODUCED, USED, COPIED,
#MODIFIED, PROPAGATED, OR DISTRIBUTED EXCEPT IN ACCORDANCE WITH THE SUBSCRIPTION
#AGREEMENT. UNAUTHORIZED USE OR DISTRIBUTION OF ALL OR ANY PART OF THIS FILE MAY VIOLATE
#COPYRIGHT, TRADEMARK, AND/OR OTHER LAWS AND IS SUBJECT TO CIVIL AS WELL AS CRIMINAL
#SANCTIONS.
#--------------------------------------------------#
#THIS FILE IS PROVIDED "AS-IS" AND ALL WARRANTIES ARE EXPRESSLY DISCLAIMED, WHETHER
#EXPRESS, ORAL, IMPLIED, STATUTORY OR OTHERWISE, INCLUDING ANY IMPLIED WARRANTY OF FITNESS
#FOR A PARTICULAR PURPOSE, MERCHANTABILITY, TITLE OR NON-INFRINGEMENT, AND ANY WARRANTIES
#ARISING BY VIRTUE OF CUSTOM OF TRADE OR COURSE OF DEALING.  FURTHER, DRILLING INFO,
#INC. AND ITS LICENSORS DO NOT REPRESENT OR WARRANT THAT THIS FILE WILL MEET USER'S
#REQUIREMENTS OR ARE SUITABLE FOR USER'S NEEDS OR THAT THE DATA OR RESULTS PROVIDED IN
#CONJUNCTION THEREWITH ARE CORRECT, ACCURATE, TIMELY OR RELIABLE. THESE DISCLAIMERS SHALL
#APPLY REGARDLESS OF ANY FAILURE OF ESSENTIAL PURPOSE OF ANY LIMITED REMEDY.  SOME
#JURISDICTIONS DO NOT ALLOW THE EXCLUSION OF CERTAIN WARRANTIES SO SOME OF THE ABOVE
#EXCLUSIONS MAY NOT APPLY. IN NO EVENT SHALL DRILLING INFO, INC. OR ANY OF ITS AFFILIATES
#BE LIABLE UNDER ANY LEGAL THEORY, WHETHER IN TORT (INCLUDING WITHOUT LIMITATION
#NEGLIGENCE), CONTRACT, STRICT LIABILITY, STATUTORY OR OTHERWISE, FOR ANY SPECIAL,
#INCIDENTAL, CONSEQUENTIAL, EXEMPLARY, PUNITIVE OR INDIRECT DAMAGE OF ANY KIND, INCLUDING
#WITHOUT LIMITATION LOSS OF REVENUE, PROFITS, GOODWILL, USE, AND/OR DATA OR THE COST OF
#PROCUREMENT OF SUBSTITUTE GOODS OR SERVICES, EVEN IF APPRISED OF THE POSSIBILITY OF SUCH
#DAMAGES IN ADVANCE.
#--------------------------------------------------#
# Exported from DI Transform
# DI Transform - A Product of Drillinginfo, Inc. - www.drillinginfo.com
#--------------------------------------------------#
#
~VERSION INFORMATION
 VERS.        2.0 : LAS ASCII STANDARD - VERSION 2.0
 WRAP.         NO : ONE LINE PER DEPTH STEP

~WELL INFORMATION
#MNEM.UNIT       DATA TYPE       INFORMATION
#---------       ---------       -----------
 STRT.ft           120 : Start Depth
 STOP.ft          9260 : Stop Depth
 STEP.ft           0.5 : Step Length
 NULL.         -999.25 : Null Value
 COMP.                 : Company
 WELL.          DRD_90 : Well Name
 FLD.                  : Field Name
 LOC.                  : Well Location
 CNTY.                 : County
 STAT.                 : State or Province
 CTRY.                 : Country
 SRVC.                 : Service Company
 DATE.                 : Date
 API.   42383308360000 : Well Identifier

~CURVE INFORMATION
#MNEM.UNIT       API CODE       CURVE DESCRIPTION
#---------       --------       -----------------
 DEPT.ft          : <Measured Depth>
 CAL.in           : Caliper
 DPHI.%           : Density Porosity
 DT.us/ft         : Sonic
 GR.gAPI          : Gamma Ray
 LLD.ohmm         : Deep Resistivity
 LLS.ohmm         : Shallow Resistivity
 NPHI.%           : Neutron Porosity
 RHOB.g/cm3       : Density

~PARAMETER INFORMATION
#MNEM.UNIT       VALUE       DESCRIPTION
#---------       -----       -----------
 EKB.ft      2720 : Elevation above MSL

~A       DEPT         CAL        DPHI          DT          GR         LLD         LLS        NPHI        RHOB
# ...
       9208.5      7.8687      5.4114     56.4984     18.4783      5.4527      3.5693     16.2905      2.6045
         9209      7.8822      3.8526       56.73     18.2437      5.0141      3.3252     16.6554      2.6382
       9209.5      7.9107      3.0958     57.3665     17.3913      4.5389      3.1625     17.1061      2.6316
         9210      7.9391      3.2191     59.8118      17.029      4.1682       2.666     18.4011      2.6128
       9210.5      7.9676      3.2191     60.2427     16.9355      4.1682      2.5749     18.8205      2.5829
         9211      7.9804      3.9447     60.5668      15.942      4.1682      2.7642     19.0282      2.5517
       9211.5      7.9804      5.8864     60.3367     16.3037      4.3559      3.0308     18.8129      2.5445
         9212      7.9804      8.3244     59.4509     16.9813      4.1989      3.2665     18.5038      2.5449
       9212.5      7.9804      8.3727     59.1122     18.0212      4.0011      3.3805     17.3893      2.5532
         9213      7.9804      8.3599     58.9882     18.3365      3.8126       2.688      16.744      2.5581
       9213.5      7.9804      7.8468     59.3008     18.4783      3.5437        2.47     16.8588      2.5649
         9214      7.9412      7.7063     58.5555     18.8406      3.5017      2.3408     17.2184      2.5705
       9214.5      7.9412      7.2314     57.4986     19.6446      3.5017      2.3513     17.6818      2.5852
         9215      7.9412      6.9357     56.4094     20.3222      4.1297       2.652     17.4837      2.5908
       9215.5      7.9412      5.7419     55.6507     21.3768      5.0092      3.5256     17.0431      2.5916
         9216      7.9412      4.9243      54.372     21.7391      5.4419      4.3268     16.4844      2.5916
       9216.5      7.9412      5.9876      53.788     21.7391      6.0783      4.3593     15.6514      2.5919
         9217      7.9412      5.6392     52.7459     22.1014      7.2075      4.4914      15.443      2.6065
       9217.5      7.9412      5.1373     51.4672     22.8261      7.2075      4.3214      15.282      2.6239
         9218      7.9412      3.8404       50.76     23.6631      7.2978      4.0346      15.366      2.6344
       9218.5      7.9412      3.2616     50.6073     24.2754      7.2978      4.9389      15.464      2.6407
         9219      7.9412      2.5688     52.0472     24.2937      7.5454      5.3935     14.8704      2.6616
       9219.5      7.9412      1.1931     54.2218     25.3336      7.5754      5.4133     14.2414      2.6662
         9220      7.9412      0.4847     57.0409     29.6178      6.9928      4.6955     14.6915      2.6683
       9220.5      7.9412      1.2848     57.5173     29.7632      6.3572      4.4944     14.8813      2.6713
         9221      7.9459      1.3816     57.6518     29.3762      6.1138      4.5581     14.9999      2.6765
       9221.5      7.9531      0.5157     57.0334     28.6129      7.1709      5.2842     14.4825      2.6928
         9222      7.9604     -0.6928     56.3561     27.8497      9.3242      6.7673     12.5593      2.7226
       9222.5      7.9676     -4.2865     55.6662     27.0864     14.2256      7.5888     10.7694      2.7387
         9223      7.9748      -3.243     53.9646     26.3231     16.4855     13.6728      9.7105      2.7626
       9223.5       7.982     -1.9045     53.1272      25.931     18.7306      12.557      9.9011      2.7207
         9224      7.9893     -0.9233     53.2087      25.376      15.316      9.0807     10.3979      2.6841
       9224.5      7.9965      1.9417     55.4656     25.3393      9.8418      4.9016     11.9844      2.6538
         9225      8.0037      3.0233     55.3904     25.3393      8.0761      3.1738     12.7536      2.6463
       9225.5      8.0109      2.1622     54.2389     25.3393       3.593      4.3747     12.6455      2.6857
         9226      8.0182      0.8525     52.4873     25.3393     30.1575      6.7681     10.6379      2.7245
       9226.5      8.0254     -3.4344     50.5956     25.3393     39.1883     14.1403      8.5746      2.7386
         9227      8.0326     -3.2449     49.9595     25.3393     47.3026     33.0286      8.4201      2.7407
       9227.5      8.0399     -3.4739     50.1598     25.3623     38.9611     26.7713      8.2116      2.7572
         9228      8.0471     -4.8031     50.3644     24.0169      36.804     26.2996       7.365      2.7562
       9228.5      8.0543     -4.2044     50.2834     22.6147     36.1512     24.7532      6.8254      2.7383
         9229      8.0208     -3.0864     50.5784     20.9492     26.1786     13.7973      7.4956      2.7243
       9229.5      7.9544     -1.3514     51.4104     19.7516     14.5502     10.8855      8.9478      2.7059
         9230       7.911     -0.8943     53.4234     17.3211     11.4297      5.8709     11.4502      2.6934
       9230.5       7.902     -0.4897     53.8397     13.4246      8.3761      5.7655     13.6426      2.6927
         9231       7.902     -0.5465     54.3726      6.1214      7.4164      5.6693     14.7038      2.6906
       9231.5       7.902     -0.3731     54.7363      2.6071      6.4774      5.5342     16.2119      2.6375
         9232       7.902       0.611     55.6275      1.9295      6.2853      5.4024     16.2452      2.6296
       9232.5       7.902      2.2118     55.7963      1.8116      6.2593      5.2738     15.8827      2.6316
         9233       7.902      3.6803     55.8704      1.4493      6.2076      5.2149      15.743      2.6337
       9233.5       7.902      3.9679     55.7085      1.4493      6.2922       5.286      15.743      2.6358
         9234       7.902      3.8523     55.7626      2.1739       6.364      5.3463     15.7513      2.6381
       9234.5      7.9193      3.1438     55.9132      2.1648       6.364      5.3463      15.743       2.655
         9235      7.9525      1.2889     56.0324      1.4872       6.364      5.3463     15.6947      2.6798
       9235.5      7.9857      0.2467     55.8704      1.4493      6.3175      5.3463     15.7842      2.6886
         9236      8.0189     -0.1591     55.5375      1.5813      6.2853      5.3463     15.9926      2.6965
       9236.5      8.0521     -1.0191     54.3014      1.8116      6.2853      5.3463     16.0927      2.7125
         9237      8.0853     -1.4321     53.6977      1.4493       6.364      5.3463      15.662      2.7171
       9237.5      8.1185     -1.7556     53.2231      1.4493      6.2076      5.3463     15.0433       2.723
         9238      8.1517     -2.1175     53.4863      1.7694      6.2853      5.3463     14.4667      2.7312
       9238.5      8.1709     -2.2865     53.3704       2.169      6.2853      5.3463     13.5098      2.7689
         9239      8.1493     -3.4814     52.7126      1.4493      6.2961      5.3463     11.3962      2.7885
       9239.5      8.1373     -3.6708      42.014      1.8116      6.2853      5.3463      8.6618      2.7941
         9240      8.1227     -3.9582     -999.25       1.233      6.2853      5.3463       4.455      2.7988
       9240.5       8.101     -4.1363     -999.25      1.9808      6.2853      5.3463      0.1564      2.8025
         9241      8.0793     -5.1707     -999.25      2.0517      6.2076      5.3463     -1.9339      2.8039
       9241.5      8.0588     -6.4065     -999.25      1.8116      6.2158      5.3463     -3.2495      2.8052
         9242      8.0588     -5.8346     -999.25      2.5643       6.232      5.2802     -3.5688      2.8066
       9242.5      8.0588     -5.0424     -999.25      3.9476      4.8803      5.2521     -3.4201      2.8079
         9243      8.0588     -5.6537     -999.25      7.6249      1.0468      1.0905     -3.3956      2.8069
       9243.5      8.0588     -6.0114     -999.25     13.3507      1.0286      0.9764      -3.371      2.7713
         9244      8.0588     -7.2321     -999.25     20.8544      1.0331      0.9645     -3.3464      2.7721
       9244.5      8.0588     -7.1149     -999.25     22.3342      1.0377      0.9645     -3.3298      2.7917
