#--------------------------------------------------#
#----------------DRILLING INFO, INC.---------------#
#---------------WWW.DRILLINGINFO.COM---------------#
#------------------COPYRIGHT 2018------------------#
#--------------------------------------------------#
#THIS FILE MAY BE USED ONLY IN ACCORDANCE WITH A CURRENT SUBSCRIPTION AGREEMENT BETWEEN
#THE USER AND DRILLING INFO, INC. NO PART OF THIS FILE MAY BE REPRODUCED, USED, COPIED,
#MODIFIED, PROPAGATED, OR DISTRIBUTED EXCEPT IN ACCORDANCE WITH THE SUBSCRIPTION
#AGREEMENT. UNAUTHORIZED USE OR DISTRIBUTION OF ALL OR ANY PART OF THIS FILE MAY VIOLATE
#COPYRIGHT, TRADEMARK, AND/OR OTHER LAWS AND IS SUBJECT TO CIVIL AS WELL AS CRIMINAL
#SANCTIONS.
#--------------------------------------------------#
#THIS FILE IS PROVIDED "AS-IS" AND ALL WARRANTIES ARE EXPRESSLY DISCLAIMED, WHETHER
#EXPRESS, ORAL, IMPLIED, STATUTORY OR OTHERWISE, INCLUDING ANY IMPLIED WARRANTY OF FITNESS
#FOR A PARTICULAR PURPOSE, MERCHANTABILITY, TITLE OR NON-INFRINGEMENT, AND ANY WARRANTIES
#ARISING BY VIRTUE OF CUSTOM OF TRADE OR COURSE OF DEALING.  FURTHER, DRILLING INFO,
#INC. AND ITS LICENSORS DO NOT REPRESENT OR WARRANT THAT THIS FILE WILL MEET USER'S
#REQUIREMENTS OR ARE SUITABLE FOR USER'S NEEDS OR THAT THE DATA OR RESULTS PROVIDED IN
#CONJUNCTION THEREWITH ARE CORRECT, ACCURATE, TIMELY OR RELIABLE. THESE DISCLAIMERS SHALL
#APPLY REGARDLESS OF ANY FAILURE OF ESSENTIAL PURPOSE OF ANY LIMITED REMEDY.  SOME
#JURISDICTIONS DO NOT ALLOW THE EXCLUSION OF CERTAIN WARRANTIES SO SOME OF THE ABOVE
#EXCLUSIONS MAY NOT APPLY. IN NO EVENT SHALL DRILLING INFO, INC. OR ANY OF ITS AFFILIATES
#BE LIABLE UNDER ANY LEGAL THEORY, WHETHER IN TORT (INCLUDING WITHOUT LIMITATION
#NEGLIGENCE), CONTRACT, STRICT LIABILITY, STATUTORY OR OTHERWISE, FOR ANY SPECIAL,
#INCIDENTAL, CONSEQUENTIAL, EXEMPLARY, PUNITIVE OR INDIRECT DAMAGE OF ANY KIND, INCLUDING
#WITHOUT LIMITATION LOSS OF REVENUE, PROFITS, GOODWILL, USE, AND/OR DATA OR THE COST OF
#PROCUREMENT OF SUBSTITUTE GOODS OR SERVICES, EVEN IF APPRISED OF THE POSSIBILITY OF SUCH
#DAMAGES IN ADVANCE.
#--------------------------------------------------#
# Exported from DI Transform
# DI Transform - A Product of Drillinginfo, Inc. - www.drillinginfo.com
#--------------------------------------------------#
#
~VERSION INFORMATION
 VERS.        2.0 : LAS ASCII STANDARD - VERSION 2.0
 WRAP.         NO : ONE LINE PER DEPTH STEP

~WELL INFORMATION
#MNEM.UNIT       DATA TYPE       INFORMATION
#---------       ---------       -----------
 STRT.ft           120 : Start Depth
 STOP.ft          9260 : Stop Depth
 STEP.ft           0.5 : Step Length
 NULL.         -999.25 : Null Value
 COMP.                 : Company
 WELL.          DRD_90 : Well Name
 FLD.                  : Field Name
 LOC.                  : Well Location
 CNTY.                 : County
 STAT.                 : State or Province
 CTRY.                 : Country
 SRVC.                 : Service Company
 DATE.                 : Date
 API.   42383308360000 : Well Identifier

~CURVE INFORMATION
#MNEM.UNIT       API CODE       CURVE DESCRIPTION
#---------       --------       -----------------
 DEPT.ft          : <Measured Depth>
 CAL.in           : Caliper
 DPHI.%           : Density Porosity
 DT.us/ft         : Sonic
 GR.gAPI          : Gamma Ray
 LLD.ohmm         : Deep Resistivity
 LLS.ohmm         : Shallow Resistivity
 NPHI.%           : Neutron Porosity
 RHOB.g/cm3       : Density

~PARAMETER INFORMATION
#MNEM.UNIT       VALUE       DESCRIPTION
#---------       -----       -----------
 EKB.ft      2720 : Elevation above MSL

~A       DEPT         CAL        DPHI          DT          GR         LLD         LLS        NPHI        RHOB
# ...
       5631.5      8.8502      9.8725     79.5951     95.9424     10.4628      8.4734     19.5991      2.5255
         5632      8.8502      9.8049     79.4332     97.4638      11.309      8.4734     20.6704      2.5212
       5632.5      8.8502      9.8049     78.1186      95.941     11.5796      8.2581     21.5164      2.5146
         5633      8.8744      9.2923     77.3701     92.2224       9.911      7.8691     21.7209      2.5125
       5633.5      8.8986      8.4336     77.2745     90.8765      8.4734      6.6062     20.6684      2.5135
         5634      8.9227      8.1832     77.5871     91.6852      8.4734      6.5244     20.2641      2.5243
       5634.5      8.9227      8.8186     78.4157     93.2543      8.3093      6.0021     20.1634      2.5365
         5635      8.9227      9.2441     79.5889     96.0145      7.5754      6.0021     20.1053      2.5308
       5635.5      8.9469      9.6324     79.6126     96.0145      7.5754      6.0021     20.4189      2.5249
         5636      8.9469      8.9656      79.065     96.3768      7.6703      6.0021     20.8357      2.5244
       5636.5      8.9469      7.8941     77.5899     93.9117      8.0776       6.223     20.8915      2.5283
         5637      8.9469       7.327     76.7827     92.2928      8.4734      6.4591     20.7222      2.5349
       5637.5      8.9227      8.2755     76.4372     88.6651      8.5795      6.9168     19.7168      2.5387
         5638      8.9227      9.3402      76.511     86.5942      8.9522      7.2078     18.8643      2.5483
       5638.5      8.9227      9.4427     76.3563     85.9122      9.4778      7.3714     18.4959       2.531
         5639      8.8744       8.665      74.798     85.1449      9.4778      7.2784     18.1798      2.5225
       5639.5      8.8744      7.7123     73.5621     82.5675      9.3218      6.9172     17.7021       2.529
         5640      8.8744      7.1359      73.085     79.5316      8.7729       6.365     17.4937      2.5337
       5640.5      8.8744      7.2982     72.2758     78.6232      8.8053      6.9509     16.4481      2.5337
         5641      8.8261      8.4692     72.2474     78.6232      10.575      7.3383     15.7304      2.5358
       5641.5      8.8261      8.6975     73.6362     79.7289     11.2594      7.5754     15.7652      2.5365
         5642      8.8261       6.781     74.4111     84.4059     11.4232      7.6703     16.2277      2.5454
       5642.5      8.8261      5.5921     76.7322     86.2997     11.2819      7.3352      16.534      2.5669
         5643      8.8433      7.4154     78.2306      89.311     10.9094      6.9496     17.6509      2.5785
       5643.5      8.9127      7.6744     79.3166     92.5275      9.4778      6.2633     20.0943      2.5602
         5644       8.971      7.7745     79.2468     93.3137       8.687      6.1623     20.6804      2.5575
       5644.5       8.971      7.5606     77.6932     93.2334      8.5795      6.0908     21.4153      2.5553
         5645      8.9952      7.0774     75.7888     92.6832      8.5795      6.0908     21.6566      2.5572
       5645.5      8.9952      6.7948     73.0339     89.9427      8.5795      6.0908     21.3708       2.558
         5646      8.9952      7.6255     72.0515     82.2308      8.5795      6.0908     19.3455       2.558
       5646.5      8.9952      7.7138     71.1962      78.473       8.644      6.0908     18.2308       2.558
         5647      8.9952      6.9137     71.4788     74.0308      8.5795      6.0908     15.6851       2.558
       5647.5      8.9952      7.3584     72.8232     74.1106      8.5795      6.0908     14.7736       2.558
         5648      8.9952      7.5479     74.3429       76.87      8.8593      6.1218     14.7736       2.558
       5648.5      8.9952      7.6394      76.776     80.5119      9.4778       6.771     14.8966      2.5484
         5649      8.9952      8.7102     77.9809      86.554      9.9524      7.3926     15.4707      2.5345
       5649.5      8.9952      8.6034     78.2996     90.4219      9.6995      7.4772     17.4429      2.5337
         5650      8.9952      8.3456     78.4416     94.2898      9.5965      7.1465     18.9144      2.5344
       5650.5      8.9952      7.9911     78.4615     96.3885      9.1976       6.749     20.0056      2.5368
         5651      8.9952      7.0733     78.3806     98.1884      8.6627      6.3429     20.1395      2.5528
       5651.5      9.0193      7.1604     78.2996     98.5507      7.7316      6.0492      20.213      2.5478
         5652      9.0193      7.1715     78.5819     99.0495      7.5754      5.8334     20.2668      2.5499
       5652.5      9.0193      7.7355     80.0144    100.5882      7.4712      5.5681     19.8367       2.552
         5653      9.0193      7.6197     80.8746    100.3623      6.7752      5.4961     19.6206       2.554
       5653.5      9.0193      7.4303     81.3588    100.3623      6.5244      5.4961     19.6199      2.5556
         5654      8.9952      7.7374     81.3765    102.0963      6.6062      5.5564      21.017      2.5556
       5654.5      8.9952      7.6343     81.7846    105.1878      7.5631      6.0793     22.3232      2.5571
         5655       8.971      7.0529     80.6992    106.1594      8.5795      6.7508     22.8841      2.5603
       5655.5      8.8873      7.5504     80.3592    106.3289     10.3764      7.8675     22.8141      2.5644
         5656      8.7696      9.3066     81.1406    106.5217     11.8645      9.0698     22.3923      2.5295
       5656.5      8.6761      9.4954     81.4532    106.5217     11.4232     10.0327     21.4405       2.522
         5657      8.6589      8.2183     83.5473    105.7688     11.4232      9.9229      21.272      2.5199
       5657.5      8.7524      9.8134     83.5085    102.2677     11.0045      9.5594     22.6736      2.5168
         5658      8.8019      8.9117      82.791     98.6165      10.835      9.4606     23.0673      2.5149
       5658.5      8.8019      8.5127     80.3761     92.9229      10.734     10.4976     23.0302      2.5245
         5659      8.8019      7.6168     76.1396      88.683      10.667     12.5279     22.5288      2.5345
       5659.5      8.7916      6.4712     70.4099     80.5633     11.9546     14.3971     22.1901      2.5383
         5660      8.7222      3.9878     63.9727     76.6154     17.2754     19.3537     20.2885      2.5614
       5660.5      8.6288      1.6916     57.0789     59.8718     36.5472     39.7235     16.8723      2.5926
         5661      8.5604     -0.2921     59.0368     58.3476     64.5344     42.2109      14.238      2.6479
       5661.5      8.5632     -0.6932     65.0932     63.7197     54.6839     28.1443     11.4222      2.6961
         5662      8.5604      0.8421     70.8032     68.3984      32.365     18.2273     11.5842      2.6465
       5662.5      8.5761      4.4624     80.0032     90.9688     18.9697     10.1322     15.0803      2.6072
         5663      8.6329      6.8676      81.307     98.9347     11.1151      9.3867      18.565      2.5698
       5663.5      8.7147      7.3018      83.037     99.8587      9.3741      8.3489     19.6408      2.5598
         5664      8.8082      7.3317     83.5517     99.2754       8.352      7.6913      21.009      2.5567
       5664.5      8.8744      7.5339     84.0262     99.3226      8.0026      7.1883      21.968       2.545
         5665      8.8986      8.5557     84.0012    100.7248      8.2509       6.951     22.4212      2.5363
       5665.5      8.8986      9.0753     83.2787     101.087      8.7757      8.4484     23.1681      2.5282
         5666      8.9164      9.2774     82.4728     99.4631      9.2002      9.4289     23.5042      2.5224
       5666.5      8.9469      8.5747     80.9376     97.6047      9.0038      9.8865     23.6926      2.5302
         5667      8.9469      8.6825      80.156     96.5648     11.4979      9.8136       23.58      2.5417
       5667.5      8.9469      9.3562     79.4465     94.4379     11.3669      9.6855     23.2005      2.5288
