#--------------------------------------------------#
#----------------DRILLING INFO, INC.---------------#
#---------------WWW.DRILLINGINFO.COM---------------#
#------------------COPYRIGHT 2018------------------#
#--------------------------------------------------#
#THIS FILE MAY BE USED ONLY IN ACCORDANCE WITH A CURRENT SUBSCRIPTION AGREEMENT BETWEEN
#THE USER AND DRILLING INFO, INC. NO PART OF THIS FILE MAY BE REPRODUCED, USED, COPIED,
#MODIFIED, PROPAGATED, OR DISTRIBUTED EXCEPT IN ACCORDANCE WITH THE SUBSCRIPTION
#AGREEMENT. UNAUTHORIZED USE OR DISTRIBUTION OF ALL OR ANY PART OF THIS FILE MAY VIOLATE
#COPYRIGHT, TRADEMARK, AND/OR OTHER LAWS AND IS SUBJECT TO CIVIL AS WELL AS CRIMINAL
#SANCTIONS.
#--------------------------------------------------#
#THIS FILE IS PROVIDED "AS-IS" AND ALL WARRANTIES ARE EXPRESSLY DISCLAIMED, WHETHER
#EXPRESS, ORAL, IMPLIED, STATUTORY OR OTHERWISE, INCLUDING ANY IMPLIED WARRANTY OF FITNESS
#FOR A PARTICULAR PURPOSE, MERCHANTABILITY, TITLE OR NON-INFRINGEMENT, AND ANY WARRANTIES
#ARISING BY VIRTUE OF CUSTOM OF TRADE OR COURSE OF DEALING.  FURTHER, DRILLING INFO,
#INC. AND ITS LICENSORS DO NOT REPRESENT OR WARRANT THAT THIS FILE WILL MEET USER'S
#REQUIREMENTS OR ARE SUITABLE FOR USER'S NEEDS OR THAT THE DATA OR RESULTS PROVIDED IN
#CONJUNCTION THEREWITH ARE CORRECT, ACCURATE, TIMELY OR RELIABLE. THESE DISCLAIMERS SHALL
#APPLY REGARDLESS OF ANY FAILURE OF ESSENTIAL PURPOSE OF ANY LIMITED REMEDY.  SOME
#JURISDICTIONS DO NOT ALLOW THE EXCLUSION OF CERTAIN WARRANTIES SO SOME OF THE ABOVE
#EXCLUSIONS MAY NOT APPLY. IN NO EVENT SHALL DRILLING INFO, INC. OR ANY OF ITS AFFILIATES
#BE LIABLE UNDER ANY LEGAL THEORY, WHETHER IN TORT (INCLUDING WITHOUT LIMITATION
#NEGLIGENCE), CONTRACT, STRICT LIABILITY, STATUTORY OR OTHERWISE, FOR ANY SPECIAL,
#INCIDENTAL, CONSEQUENTIAL, EXEMPLARY, PUNITIVE OR INDIRECT DAMAGE OF ANY KIND, INCLUDING
#WITHOUT LIMITATION LOSS OF REVENUE, PROFITS, GOODWILL, USE, AND/OR DATA OR THE COST OF
#PROCUREMENT OF SUBSTITUTE GOODS OR SERVICES, EVEN IF APPRISED OF THE POSSIBILITY OF SUCH
#DAMAGES IN ADVANCE.
#--------------------------------------------------#
# Exported from DI Transform
# DI Transform - A Product of Drillinginfo, Inc. - www.drillinginfo.com
#--------------------------------------------------#
#
~VERSION INFORMATION
 VERS.        2.0 : LAS ASCII STANDARD - VERSION 2.0
 WRAP.         NO : ONE LINE PER DEPTH STEP

~WELL INFORMATION
#MNEM.UNIT       DATA TYPE       INFORMATION
#---------       ---------       -----------
 STRT.ft           120 : Start Depth
 STOP.ft          9260 : Stop Depth
 STEP.ft           0.5 : Step Length
 NULL.         -999.25 : Null Value
 COMP.                 : Company
 WELL.          DRD_90 : Well Name
 FLD.                  : Field Name
 LOC.                  : Well Location
 CNTY.                 : County
 STAT.                 : State or Province
 CTRY.                 : Country
 SRVC.                 : Service Company
 DATE.                 : Date
 API.   42383308360000 : Well Identifier

~CURVE INFORMATION
#MNEM.UNIT       API CODE       CURVE DESCRIPTION
#---------       --------       -----------------
 DEPT.ft          : <Measured Depth>
 CAL.in           : Caliper
 DPHI.%           : Density Porosity
 DT.us/ft         : Sonic
 GR.gAPI          : Gamma Ray
 LLD.ohmm         : Deep Resistivity
 LLS.ohmm         : Shallow Resistivity
 NPHI.%           : Neutron Porosity
 RHOB.g/cm3       : Density

~PARAMETER INFORMATION
#MNEM.UNIT       VALUE       DESCRIPTION
#---------       -----       -----------
 EKB.ft      2720 : Elevation above MSL

~A       DEPT         CAL        DPHI          DT          GR         LLD         LLS        NPHI        RHOB
# ...
         4719      9.0193     13.2544     96.3155    113.4058      9.2642      7.7945     29.9608      2.4206
       4719.5      9.0193      13.011     96.2458    113.7681      9.0312      7.6545     29.9317      2.4156
         4720       8.971      13.129     96.2126    113.7681      8.8042      7.6545     29.7122      2.4569
       4720.5      8.9642     13.3048     96.2753    113.2531      8.5828       7.451     28.5993      2.4569
         4721      8.9227     13.1505     96.1176     110.661      8.9358       7.382      28.399      2.4571
       4721.5      8.9222     12.9095     95.8205    109.7826      9.3074      8.0747      28.509      2.4582
         4722      8.8744     12.5267     95.0065    108.7744      9.6944      9.2763     28.4579      2.4611
       4722.5      8.8744     12.4412     93.3554      107.16     10.0975       9.343      27.981      2.4658
         4723      8.8744     13.1308     92.6333    107.2464     10.3054       9.343     27.9682      2.4689
       4723.5      8.8744     13.2558     90.4937    106.6113     10.1271      9.3084     27.9952      2.4552
         4724      8.8744     13.5073     87.7914    101.6094      9.9518         9.2     28.2036      2.4536
       4724.5      8.8744     12.2158      89.428     98.6003      9.7795      8.9709     27.8956      2.4663
         4725      8.8502     10.8073     90.3244     97.1014      9.5897      8.7122     27.3815      2.4718
       4725.5      8.8265      8.5099     93.3207     97.4574      9.3982      8.4609     26.1437      2.4834
         4726      8.8261      9.4297     95.9217    100.5911      9.2186      8.3804     26.6743      2.5155
       4726.5      8.8261     11.1827     95.2019     105.415      9.0424      8.3324     28.3409       2.529
         4727      8.8261     12.5903     93.2361    106.5217      8.8696      8.2794     28.6683      2.5347
       4727.5      8.8261     12.4158      89.082     105.002      8.7001      8.2299     28.4818      2.4767
         4728      8.8261     11.6239     87.5297    101.5702      8.5814      8.2651     28.3272      2.4746
       4728.5      8.8261     10.4411     86.7905     98.9469      8.5814      8.3298     26.8413      2.4657
         4729      8.7536      7.0009     88.1304     97.4638      9.3605      8.4518     24.4011      2.5181
       4729.5      8.7536      6.4859      93.345     97.8057      9.5965      8.7776     23.1988       2.555
         4730      8.7053      7.1757     94.3188    103.3871      10.039       9.116     24.2897      2.5619
       4730.5      8.6812       7.825     94.4322    110.3637     10.4701      9.4674     27.2439      2.5598
         4731      8.6812      9.3986     89.2628    112.5196      10.519      9.6879     28.1054      2.5543
       4731.5      8.6812     10.0304     85.5729    111.8028     11.6078      9.6879     29.1758      2.5209
         4732       8.657      9.8718     84.3182    106.7774     10.8515      9.6879     28.9723       2.513
       4732.5       8.657      9.3152      87.318     101.995     10.3404      9.5128     27.1119      2.5176
         4733       8.657      8.5412     92.8603    101.4681      9.6862      8.1684     24.8965      2.5428
       4733.5       8.657      7.6301     96.3136     105.133      9.4489      8.5147     24.6881      2.5177
         4734      8.6999     11.5979     96.5182    112.7989      9.5525      8.8093     25.6351      2.5016
       4734.5      8.7934     13.3916     96.5992    115.0888      9.4778      8.8083      28.703      2.4532
         4735      8.8019     14.1015     96.5137    115.2174      9.4778      8.6897     30.0588      2.4405
       4735.5      8.8019     14.3028     96.5182    114.2832      9.4778       8.437     30.1016      2.4367
         4736      8.8019     14.2225     97.4719    113.8607      9.6151      8.1458     29.8932      2.4357
       4736.5      8.8019     13.8651     97.9173    114.9007      9.4778      8.0822     29.9138      2.4336
         4737      8.8019     14.6505     98.1781    115.9406      9.4778      8.0822     29.9608      2.4279
       4737.5      8.8019     15.3152     97.7699     115.109      9.5683      8.1195     29.9608        2.42
         4738      8.8019     15.9005     95.6095    112.4622      9.8732      8.3532     29.9212      2.4179
       4738.5      8.8019     13.8266     93.3771    107.7397     10.5376      8.4594     29.7128      2.4121
         4739      8.8019     12.0037      92.879    104.5545     10.4194      8.5696     29.5043      2.4384
       4739.5      8.8019     11.0846     92.5663    100.4734      9.4778      8.6706     29.2959      2.4803
         4740      8.8019     10.8511     94.0351    100.3623      9.2121      8.0475     29.0875      2.4967
       4740.5      8.8019     10.3882     95.3666    100.7719      8.4734      7.6199     28.9376      2.4641
         4741      8.8019     12.9882     96.3878    103.5844      8.2651      7.4817     29.5992      2.4605
       4741.5      8.8702     12.4147     97.4089    107.1525      8.2651      7.4817     29.8977      2.4665
         4742      8.9359     12.1297     97.6028    110.3976      8.0974      7.1497     29.9608      2.4734
       4742.5      8.9469      12.102     96.0461    111.0262       7.716       6.813     29.9608      2.4761
         4743       8.971     11.4933     94.7842    110.8696      7.2978      6.4205     29.9608      2.4792
       4743.5       8.971     11.4782     91.7078    108.6117      7.3231      6.4437     29.9608      2.4824
         4744       8.971     10.1418     91.6239    106.4572      7.5033      6.4437     29.8435      2.4913
       4744.5       8.971      8.9075     91.8824    105.4173      8.4734      6.8729     29.7454      2.5149
         4745      8.9488      7.8519     92.8945    105.0725      9.3227      7.4817      28.244      2.5354
       4745.5      8.8744      9.4831     94.3129    106.0828      9.3352      7.7459     27.7528      2.5419
         4746      8.8744     10.7911     93.6032     107.485      8.5999      7.2993     27.8763      2.5041
       4746.5      8.8936     11.0684     93.6032    110.8696      7.7151      6.8975     29.6123      2.4907
         4747      8.9469     11.5614     93.6032     110.725      7.4817      6.5244     29.7454      2.4838
       4747.5       8.971     12.2898      94.703    110.5072       7.569      6.4272      28.747      2.4743
         4748       8.971     12.4303     94.8178      110.92      8.2046      7.0306     28.5756       2.473
       4748.5      8.9712     12.6707     92.3464    110.8696      8.9145       7.966     29.7192      2.4711
         4749      9.0193     12.3804     90.8719    110.8696      9.4778        8.46     29.9543      2.4718
       4749.5      9.0193     12.1726     87.8233    110.2356      9.4778       8.687     29.9205       2.478
         4750      9.0193     11.8546     85.3553    107.0218     10.9591       8.687     29.6953      2.4864
       4750.5      9.0193     10.3323     85.7689    104.7209     10.8684       8.687     28.4803      2.4964
         4751      8.9623      8.7339     86.5606     99.5432     10.4364       8.687     27.8906      2.5148
       4751.5      8.8744      8.6536     87.9256     97.1014      9.4738      8.6553     25.0313      2.5305
         4752      8.8744      8.6536     91.9297      98.823      8.9338      8.5613     22.7972      2.5323
       4752.5      8.8744      9.4961     94.7278    108.5523      8.8562      8.4734     24.7077      2.5312
         4753      8.8744     11.4092     95.9558    117.0372      8.8562      8.4734     27.3941       2.518
       4753.5      8.8986     12.2728     96.1134    118.8406      8.4899      8.4734      29.448       2.483
         4754      8.9227     12.3461     95.8076    117.1807         8.7      8.4734     29.7993       2.474
       4754.5      8.9336     12.3256     95.1121    115.4162      8.9152      8.4734     29.9313      2.4716
         4755      8.9469     12.4541      93.747     115.942      9.0873      8.5188     29.9608      2.4695
