#--------------------------------------------------#
#----------------DRILLING INFO, INC.---------------#
#---------------WWW.DRILLINGINFO.COM---------------#
#------------------COPYRIGHT 2018------------------#
#--------------------------------------------------#
#THIS FILE MAY BE USED ONLY IN ACCORDANCE WITH A CURRENT SUBSCRIPTION AGREEMENT BETWEEN
#THE USER AND DRILLING INFO, INC. NO PART OF THIS FILE MAY BE REPRODUCED, USED, COPIED,
#MODIFIED, PROPAGATED, OR DISTRIBUTED EXCEPT IN ACCORDANCE WITH THE SUBSCRIPTION
#AGREEMENT. UNAUTHORIZED USE OR DISTRIBUTION OF ALL OR ANY PART OF THIS FILE MAY VIOLATE
#COPYRIGHT, TRADEMARK, AND/OR OTHER LAWS AND IS SUBJECT TO CIVIL AS WELL AS CRIMINAL
#SANCTIONS.
#--------------------------------------------------#
#THIS FILE IS PROVIDED "AS-IS" AND ALL WARRANTIES ARE EXPRESSLY DISCLAIMED, WHETHER
#EXPRESS, ORAL, IMPLIED, STATUTORY OR OTHERWISE, INCLUDING ANY IMPLIED WARRANTY OF FITNESS
#FOR A PARTICULAR PURPOSE, MERCHANTABILITY, TITLE OR NON-INFRINGEMENT, AND ANY WARRANTIES
#ARISING BY VIRTUE OF CUSTOM OF TRADE OR COURSE OF DEALING.  FURTHER, DRILLING INFO,
#INC. AND ITS LICENSORS DO NOT REPRESENT OR WARRANT THAT THIS FILE WILL MEET USER'S
#REQUIREMENTS OR ARE SUITABLE FOR USER'S NEEDS OR THAT THE DATA OR RESULTS PROVIDED IN
#CONJUNCTION THEREWITH ARE CORRECT, ACCURATE, TIMELY OR RELIABLE. THESE DISCLAIMERS SHALL
#APPLY REGARDLESS OF ANY FAILURE OF ESSENTIAL PURPOSE OF ANY LIMITED REMEDY.  SOME
#JURISDICTIONS DO NOT ALLOW THE EXCLUSION OF CERTAIN WARRANTIES SO SOME OF THE ABOVE
#EXCLUSIONS MAY NOT APPLY. IN NO EVENT SHALL DRILLING INFO, INC. OR ANY OF ITS AFFILIATES
#BE LIABLE UNDER ANY LEGAL THEORY, WHETHER IN TORT (INCLUDING WITHOUT LIMITATION
#NEGLIGENCE), CONTRACT, STRICT LIABILITY, STATUTORY OR OTHERWISE, FOR ANY SPECIAL,
#INCIDENTAL, CONSEQUENTIAL, EXEMPLARY, PUNITIVE OR INDIRECT DAMAGE OF ANY KIND, INCLUDING
#WITHOUT LIMITATION LOSS OF REVENUE, PROFITS, GOODWILL, USE, AND/OR DATA OR THE COST OF
#PROCUREMENT OF SUBSTITUTE GOODS OR SERVICES, EVEN IF APPRISED OF THE POSSIBILITY OF SUCH
#DAMAGES IN ADVANCE.
#--------------------------------------------------#
# Exported from DI Transform
# DI Transform - A Product of Drillinginfo, Inc. - www.drillinginfo.com
#--------------------------------------------------#
#
~VERSION INFORMATION
 VERS.        2.0 : LAS ASCII STANDARD - VERSION 2.0
 WRAP.         NO : ONE LINE PER DEPTH STEP

~WELL INFORMATION
#MNEM.UNIT       DATA TYPE       INFORMATION
#---------       ---------       -----------
 STRT.ft           120 : Start Depth
 STOP.ft          9260 : Stop Depth
 STEP.ft           0.5 : Step Length
 NULL.         -999.25 : Null Value
 COMP.                 : Company
 WELL.          DRD_90 : Well Name
 FLD.                  : Field Name
 LOC.                  : Well Location
 CNTY.                 : County
 STAT.                 : State or Province
 CTRY.                 : Country
 SRVC.                 : Service Company
 DATE.                 : Date
 API.   42383308360000 : Well Identifier

~CURVE INFORMATION
#MNEM.UNIT       API CODE       CURVE DESCRIPTION
#---------       --------       -----------------
 DEPT.ft          : <Measured Depth>
 CAL.in           : Caliper
 DPHI.%           : Density Porosity
 DT.us/ft         : Sonic
 GR.gAPI          : Gamma Ray
 LLD.ohmm         : Deep Resistivity
 LLS.ohmm         : Shallow Resistivity
 NPHI.%           : Neutron Porosity
 RHOB.g/cm3       : Density

~PARAMETER INFORMATION
#MNEM.UNIT       VALUE       DESCRIPTION
#---------       -----       -----------
 EKB.ft      2720 : Elevation above MSL

~A       DEPT         CAL        DPHI          DT          GR         LLD         LLS        NPHI        RHOB
# ...
         6982      8.2464      6.1628     64.2556     63.9634     53.2976     44.3584      17.882      2.5507
       6982.5      8.2464       5.206     67.9773      59.631     47.9965     40.8899     16.1816      2.5691
         6983      8.2464      3.4621     73.5098     57.3461     38.5427     29.9494     14.4457      2.5848
       6983.5      8.2464      2.9452     80.2296     58.2943     25.5802      15.638      12.029      2.6002
         6984      8.2222      2.5929     84.3725     68.2757      16.568     12.4631     11.4057       2.622
       6984.5      8.2222      3.5215     88.6443     76.8795     11.2479     11.1034      12.459      2.6293
         6985      8.2464      5.4192     89.0464    100.6972      9.8934     11.7183     18.5639      2.6348
       6985.5      8.2705       7.565     89.3827    105.8245     10.2003     12.2975     22.7961      2.6444
         6986      8.2934      8.5067     89.7166    106.5414     10.5168     13.3324     25.5898      2.5806
       6986.5      8.2947      8.5067     89.8785    103.4733     10.8431     10.8807     25.5007      2.5508
         6987       8.343      8.4088     89.5073    104.9587     11.0918     12.3942     25.3831      2.5408
       6987.5      8.3188      8.9611     87.5703    108.9785     11.9684      13.042     25.7663      2.5387
         6988      8.2947      9.7962     83.5401    109.0103     12.5108      14.708     26.2448      2.5361
       6988.5      8.2947      9.6318     79.0072    103.9383     14.4734     15.3262      25.392      2.5247
         6989      8.2947      8.6944     72.0488     93.8106      18.807      22.886     23.1751      2.5158
       6989.5      8.2947      8.5049     67.3469     84.7427     41.6091     30.1131     20.9331      2.5235
         6990      8.2486      8.0337     65.4696     70.8171     51.9344     36.6754     19.2862      2.5398
       6990.5      8.2464      7.2176      67.763     66.4059     48.3804     36.6754     16.4472      2.5474
         6991      8.1981      5.1011     72.3929     63.6403     40.9923     33.7332      13.218      2.5602
       6991.5      8.2106      4.0227     78.0125      68.616     22.7846      21.974     12.3222      2.5835
         6992      8.1981      3.5428     80.4678     83.5032     23.1645      17.441     12.4682      2.6132
       6992.5      8.1981      3.9589     78.8006     88.2935     20.6856     17.8637     15.8317      2.6132
         6993      8.1981      8.0057     76.7207     96.7391     26.6514     22.9538      21.485      2.6165
       6993.5      8.2222      6.5974     78.1184     89.1337      27.178     22.9796     20.5369      2.6318
         6994      8.2222      4.9031     81.5021     86.9117     24.8148      20.621     19.3806      2.5626
       6994.5      8.2222      5.5657     82.9448      90.854     21.7072     19.5826     17.0534      2.5505
         6995      8.2222      7.1645      84.206    100.4288     21.0209     16.5939     17.8479      2.5782
       6995.5      8.2464      8.9647     83.0671    109.6393     19.1354     16.2978     20.4148      2.5791
         6996      8.2464     11.2752     82.1934    109.7826     19.0287      15.788     22.8707      2.5975
       6996.5      8.2758     10.6999     84.0794    104.2514      18.241     15.5242     22.6661      2.4962
         6997      8.2705      9.4059     87.2536    103.7038     16.5248     12.1282     21.2925      2.5212
       6997.5      8.2464      9.2901      88.502    108.0561     13.5553     10.8305     21.8435      2.5233
         6998      8.2464       9.259      88.583    112.9816     13.5553     12.4367     23.2236      2.5254
       6998.5      8.2633      8.9597      88.502    113.2969     13.5553     13.0514     24.3437       2.528
         6999      8.2947      8.4404      88.502    111.6469     13.5553     13.6966     24.5671      2.5354
       6999.5      8.2705      8.1053     86.3683    107.8192       15.23     16.4273     25.4929      2.5521
         7000      8.2222      8.4729     82.0604    101.6993     17.3042     16.5939     25.2943      2.5363
       7000.5      8.2222      8.6757     81.7478      98.257     19.4868     16.5939     23.8067      2.5342
         7001      8.1981      9.0906     78.0074     88.6861     21.9445     17.8997     22.2554      2.5299
       7001.5      8.1758      8.6898     74.2836     81.1945     24.7127     23.8045     21.0251      2.5313
         7002      8.1498      6.9395     69.8406     68.6091     27.8525     38.3044     20.2637      2.5408
       7002.5      8.1498      5.2089     66.6739     62.7037     40.0496     40.5135      18.743      2.5569
         7003      8.1498      2.2692     57.5445     55.3453    152.1138      57.537     17.2602      2.5929
       7003.5      8.1498      0.3347     53.3246     44.8171    313.5778    225.0132     13.3077       2.635
         7004      8.1498     -1.6155     52.5506     38.3075    536.7805    222.1335     10.3989      2.6717
       7004.5      8.1498     -3.8165     52.5752     37.3188    590.1165    199.4591      8.3999       2.705
         7005      8.1498     -5.0061     58.1493      38.791    331.3937    114.0978      6.4247      2.7322
       7005.5      8.1498     -3.9422     64.2144     45.2995    133.2398      54.811      5.9997      2.7523
         7006      8.1498     -2.8389     66.1447     56.3908     30.6199     15.6954      6.9246      2.7601
       7006.5      8.1498     -1.4882     79.0617      64.601     19.1714     14.6519      9.6839      2.7614
         7007      8.1739      3.7417     87.1605     79.8656     16.6913     11.1982      12.719       2.776
       7007.5      8.1739      7.2805     89.9067     96.0904     16.0907     11.2422     16.3372      2.6029
         7008      8.2222      9.4859     90.1489    106.2436      16.741     12.2429     21.9163      2.5456
       7008.5      8.2222      9.4909     88.9652    108.8443     17.7098     12.9372      25.312      2.5183
         7009      8.2705      9.8934     86.8336    107.6433     18.7933     13.7858      26.728      2.5162
       7009.5      8.2705     10.4781     86.4037    105.8825     19.0287     14.4671     26.8087      2.5107
         7010      8.2947     10.0249     86.0597    103.1065     18.7933     14.6519     24.5495      2.5063
       7010.5      8.2947      9.2717     85.6975    101.6003      19.267     14.6519      24.113      2.4961
         7011      8.2947     10.3959     84.2716     99.6377     19.5083     14.6519      24.115      2.4947
       7011.5      8.3188      11.206     84.1296     99.1582     19.1515      14.206      24.127      2.5082
         7012      8.2947     10.6183     84.1473     97.5339     18.7933     13.5976     22.9257      2.5115
       7012.5      8.2947      9.2849     85.8559      97.803     18.8491     13.5976     21.6482      2.5196
         7013      8.2947      9.3751     87.3826     97.4398     18.7933     13.5976     20.6149      2.5163
       7013.5      8.2947     10.2516      88.502     99.6769     18.7933     14.3772     23.3055      2.4983
         7014      8.2784     11.1431      87.533    100.7246      22.315     16.1324     24.8276      2.5016
       7014.5      8.2705     10.2649     85.4597     97.8603     24.6338     16.1859     24.8152      2.5122
         7015      8.2464      9.7558     82.7863     89.7226     28.7707     18.4731     24.0328      2.5151
       7015.5      8.2464      9.0737     79.4674     83.1031     41.4211     25.7322     22.9252      2.5181
         7016      8.2464      7.4914     73.5409     71.2493     43.6259      38.862     19.6881      2.5218
       7016.5      8.2464      5.9645     68.4352     64.8097      65.743     40.7826     16.6282      2.5271
         7017      8.2222      2.9575     64.9609     60.9075     65.2444     45.4076     14.6218      2.5354
       7017.5      8.2222      2.2384     65.5638     61.1469     60.5559     38.4506     12.2866      2.6404
         7018      8.2222      3.0361     69.6337     66.1875     50.3166     26.9846     11.1276      2.6477
