#--------------------------------------------------#
#----------------DRILLING INFO, INC.---------------#
#---------------WWW.DRILLINGINFO.COM---------------#
#------------------COPYRIGHT 2018------------------#
#--------------------------------------------------#
#THIS FILE MAY BE USED ONLY IN ACCORDANCE WITH A CURRENT SUBSCRIPTION AGREEMENT BETWEEN
#THE USER AND DRILLING INFO, INC. NO PART OF THIS FILE MAY BE REPRODUCED, USED, COPIED,
#MODIFIED, PROPAGATED, OR DISTRIBUTED EXCEPT IN ACCORDANCE WITH THE SUBSCRIPTION
#AGREEMENT. UNAUTHORIZED USE OR DISTRIBUTION OF ALL OR ANY PART OF THIS FILE MAY VIOLATE
#COPYRIGHT, TRADEMARK, AND/OR OTHER LAWS AND IS SUBJECT TO CIVIL AS WELL AS CRIMINAL
#SANCTIONS.
#--------------------------------------------------#
#THIS FILE IS PROVIDED "AS-IS" AND ALL WARRANTIES ARE EXPRESSLY DISCLAIMED, WHETHER
#EXPRESS, ORAL, IMPLIED, STATUTORY OR OTHERWISE, INCLUDING ANY IMPLIED WARRANTY OF FITNESS
#FOR A PARTICULAR PURPOSE, MERCHANTABILITY, TITLE OR NON-INFRINGEMENT, AND ANY WARRANTIES
#ARISING BY VIRTUE OF CUSTOM OF TRADE OR COURSE OF DEALING.  FURTHER, DRILLING INFO,
#INC. AND ITS LICENSORS DO NOT REPRESENT OR WARRANT THAT THIS FILE WILL MEET USER'S
#REQUIREMENTS OR ARE SUITABLE FOR USER'S NEEDS OR THAT THE DATA OR RESULTS PROVIDED IN
#CONJUNCTION THEREWITH ARE CORRECT, ACCURATE, TIMELY OR RELIABLE. THESE DISCLAIMERS SHALL
#APPLY REGARDLESS OF ANY FAILURE OF ESSENTIAL PURPOSE OF ANY LIMITED REMEDY.  SOME
#JURISDICTIONS DO NOT ALLOW THE EXCLUSION OF CERTAIN WARRANTIES SO SOME OF THE ABOVE
#EXCLUSIONS MAY NOT APPLY. IN NO EVENT SHALL DRILLING INFO, INC. OR ANY OF ITS AFFILIATES
#BE LIABLE UNDER ANY LEGAL THEORY, WHETHER IN TORT (INCLUDING WITHOUT LIMITATION
#NEGLIGENCE), CONTRACT, STRICT LIABILITY, STATUTORY OR OTHERWISE, FOR ANY SPECIAL,
#INCIDENTAL, CONSEQUENTIAL, EXEMPLARY, PUNITIVE OR INDIRECT DAMAGE OF ANY KIND, INCLUDING
#WITHOUT LIMITATION LOSS OF REVENUE, PROFITS, GOODWILL, USE, AND/OR DATA OR THE COST OF
#PROCUREMENT OF SUBSTITUTE GOODS OR SERVICES, EVEN IF APPRISED OF THE POSSIBILITY OF SUCH
#DAMAGES IN ADVANCE.
#--------------------------------------------------#
# Exported from DI Transform
# DI Transform - A Product of Drillinginfo, Inc. - www.drillinginfo.com
#--------------------------------------------------#
#
~VERSION INFORMATION
 VERS.        2.0 : LAS ASCII STANDARD - VERSION 2.0
 WRAP.         NO : ONE LINE PER DEPTH STEP

~WELL INFORMATION
#MNEM.UNIT       DATA TYPE       INFORMATION
#---------       ---------       -----------
 STRT.ft           120 : Start Depth
 STOP.ft          9260 : Stop Depth
 STEP.ft           0.5 : Step Length
 NULL.         -999.25 : Null Value
 COMP.                 : Company
 WELL.          DRD_90 : Well Name
 FLD.                  : Field Name
 LOC.                  : Well Location
 CNTY.                 : County
 STAT.                 : State or Province
 CTRY.                 : Country
 SRVC.                 : Service Company
 DATE.                 : Date
 API.   42383308360000 : Well Identifier

~CURVE INFORMATION
#MNEM.UNIT       API CODE       CURVE DESCRIPTION
#---------       --------       -----------------
 DEPT.ft          : <Measured Depth>
 CAL.in           : Caliper
 DPHI.%           : Density Porosity
 DT.us/ft         : Sonic
 GR.gAPI          : Gamma Ray
 LLD.ohmm         : Deep Resistivity
 LLS.ohmm         : Shallow Resistivity
 NPHI.%           : Neutron Porosity
 RHOB.g/cm3       : Density

~PARAMETER INFORMATION
#MNEM.UNIT       VALUE       DESCRIPTION
#---------       -----       -----------
 EKB.ft      2720 : Elevation above MSL

~A       DEPT         CAL        DPHI          DT          GR         LLD         LLS        NPHI        RHOB
# ...
         4281      8.7778      9.5349     85.5061     86.2319     18.5981     15.2399     22.6679      2.5258
       4281.5      8.8019      9.9477     84.6076     86.2319     18.1045     14.7041     22.6211      2.5188
         4282      8.8057     10.9594      84.376     86.5942     17.3133     14.4707     22.4665      2.5148
       4282.5       8.875     11.4006     84.3725     85.8599     15.8932     14.1417     22.1503      2.4897
         4283      8.9227      10.417     85.6695       84.82     15.2695     12.5654     22.0441      2.4895
       4283.5      8.9469      9.7445     86.6153     85.0605     14.4312     11.9735     22.1392       2.498
         4284      8.9864      9.3633     87.5628     85.5072     13.9237     11.4232     22.1518      2.5137
       4284.5      9.0316      9.7584     88.6273     86.4156     13.2678     11.3542     22.0979      2.5238
         4285      9.0676     10.5325     89.2208     89.2911     13.4043     11.2819     22.2498      2.5222
       4285.5      9.0978       10.82     88.7874     92.8433     14.1149     11.6713     23.3563      2.5031
         4286      9.2047     11.0915      87.755     93.8406     15.2626     13.2633     24.6608      2.4926
       4286.5       9.285     11.3458     86.9206     93.8406      17.765     13.9698     25.0859      2.4892
         4287      9.3092     11.3884      86.282     93.4783      18.643     16.8761     25.8063      2.4871
       4287.5      9.3092     12.2143     85.7143     91.4521     21.4701     17.7102     25.7747      2.4836
         4288      9.3164     12.4185     83.7823     88.5545     23.2525     19.5341     24.6351      2.4732
       4288.5      9.4171     12.6423     81.6434      84.528     25.0057      21.007     24.1697      2.4673
         4289      9.5106     13.0276     79.6752     82.5417     27.1069     22.6111     24.2613      2.4598
       4289.5      9.6228     13.3599     78.1178     79.6345      30.386     23.7288     24.3374      2.4552
         4290      9.3267     13.3267      77.992     78.1894     30.3778     23.5126     23.4621      2.4662
       4290.5      9.1172     11.8045     79.6299     73.5692     27.8105     23.2313     22.4051      2.4683
         4291      9.0435     10.4448     81.2294      72.167     24.5042     21.4541     21.7278      2.4705
       4291.5      9.0064      9.3619     83.2691     73.1444     23.7367     20.5201      20.967      2.5033
         4292      8.9333      9.4644     84.3868     75.8691     23.2217     18.3313     21.2125       2.516
       4292.5       8.864     10.6124      85.587      82.818     23.5126     18.7912     21.3978      2.5225
         4293      8.8261     12.8029      84.397     85.9056     24.1052     20.9864     21.5055      2.5088
       4293.5      8.8261     14.0475     79.2655     87.3188     24.1052     26.8769     21.6762      2.4775
         4294      8.8357     14.3602     72.9861     85.4927     25.4944     34.5834     22.5159      2.4577
       4294.5      8.7075     12.3121     67.8756     81.9305     44.8616     35.3467     23.6549      2.4448
         4295       8.657     10.4938     62.1239     76.2241     42.7326     37.7316     23.7556      2.4767
       4295.5       8.657      8.7477     65.9479     70.7788     42.0746     35.4142     23.5816      2.5001
         4296      8.5599      7.5472     71.7462     59.0848     22.2031     30.1121      20.799      2.5246
       4296.5      8.6329      3.2489      75.269     55.0218     18.1044     25.3347     16.1893      2.5561
         4297      8.6875      2.8593     82.6708     56.0031     17.2519     16.3326     14.7255      2.6159
       4297.5      8.7326      2.5889     84.3703     61.6121     16.4394     14.3583     14.5975      2.6457
         4298      8.8503      8.0173     85.8712     73.3746     15.6652     13.2633     16.7408      2.5917
       4298.5      8.8261      9.7906     87.2568     87.6346     15.3998     13.3051     19.0478      2.5354
         4299      8.8261     11.3827     90.3022     91.0703      16.062     14.0069     20.8442      2.4866
       4299.5      8.9133     12.1597     92.8321     93.6999     16.8559     14.4707      22.454      2.4766
         4300      8.9952     12.2766     94.0928     95.1021     17.2252     14.4707     23.7496      2.4745
       4300.5      8.9952     12.2766     93.7802     96.8871     17.2252     14.4707     24.0841      2.4744
         4301      9.0435     12.6955     92.9532    104.8309     15.1476     12.9745     24.8625      2.4743
       4301.5      9.0676     13.2521     92.1555    115.7638     13.8297     11.7993     25.2469        2.46
         4302       9.115     15.7252     93.1497    120.4371     12.4988     11.2819     27.7922       2.422
       4302.5      9.1401     17.9152     93.4623    124.6983     10.6012     11.2819     28.5157      2.3888
         4303      9.1643     16.0563     93.5125    119.9079     10.7864     12.1701     28.0751      2.3811
       4303.5      9.1884     13.7867     93.0792    118.1668     11.5522     13.1276     27.0602      2.3774
         4304      9.2126     12.5628     92.3332    115.3595     12.9793     15.2365     26.9507      2.3991
       4304.5      9.2126     12.9514     92.0078    113.4167     21.0258     15.8069     27.3557      2.4586
         4305      9.2367     13.2558     91.6142    111.9565     23.8333     18.3193     27.6549      2.4596
       4305.5      9.2354     13.0779     91.2861    111.2125      24.619     18.1564     27.7556      2.4582
         4306      9.2126     12.7492     89.1264    106.7719     22.6508     17.7374     28.4488      2.4582
       4306.5      9.1692     13.0002     88.3228     104.641     22.3594     17.1132     28.6572      2.4569
         4307      8.9791     16.3563     85.7434    102.6579      21.179     18.1045     28.6776      2.4305
       4307.5      8.9469     15.7266     84.3772    103.4544     23.4245     18.1045     27.6808      2.4121
         4308      8.9469     14.2042     86.5902    104.2013     25.8516     24.1052     27.3001      2.4055
       4308.5      8.9469     13.3576     86.1812    102.7991     31.3446     24.1395     27.0769       2.413
         4309      8.9504       10.43     81.9755     99.9476     39.3304     27.6092     26.7834       2.474
       4309.5       8.971      9.5079     75.5171      98.913     32.4084     26.1548     26.7834      2.5128
         4310       8.971      8.9643     73.4042     99.6377     27.4255     20.0861     26.7834      2.5229
       4310.5       8.971      9.9905     78.0299     99.6377     24.0636     19.1401     29.0926       2.525
         4311      8.9469     10.7895     84.2831     97.3271     20.9147     17.1382     29.7266      2.5299
       4311.5      8.9349     10.1736     89.8589     88.1431     21.3601     17.2867     28.2938      2.5373
         4312      8.8986      7.7307     89.8284     84.2839     21.5079      17.441     27.8605      2.5583
       4312.5      8.9284      6.6433     88.3692     80.4348     20.4901     17.3761     21.0209      2.5237
         4313       8.971      9.3442     86.0848     92.4297     18.1238     13.3753       20.04      2.4374
       4313.5      8.9946      9.5337     86.2675     93.8319     14.5089     12.6524     23.6046      2.4367
         4314      8.9952      11.951     86.7258     99.2196      14.774     13.0469     23.8358      2.4401
       4314.5      9.0193     13.2419     89.4533    100.2596     17.5593     13.7679      27.942      2.4714
         4315      9.0335     14.3373     89.8611    100.5121     18.5608     16.6807     28.6554      2.4786
       4315.5      9.0435     12.2543     89.2905     99.1099     21.2842     17.5052     25.8432      2.4875
         4316      9.0676       11.74     87.9951     98.4323     21.6431     18.5608     24.9632      2.5013
       4316.5      9.0676     10.5497     85.7192     99.3824     23.2557      19.091     24.5108      2.4837
         4317      9.0676     10.6202     80.1568    102.2347     25.3114     21.5508     24.2195       2.473
