#--------------------------------------------------#
#----------------DRILLING INFO, INC.---------------#
#---------------WWW.DRILLINGINFO.COM---------------#
#------------------COPYRIGHT 2018------------------#
#--------------------------------------------------#
#THIS FILE MAY BE USED ONLY IN ACCORDANCE WITH A CURRENT SUBSCRIPTION AGREEMENT BETWEEN
#THE USER AND DRILLING INFO, INC. NO PART OF THIS FILE MAY BE REPRODUCED, USED, COPIED,
#MODIFIED, PROPAGATED, OR DISTRIBUTED EXCEPT IN ACCORDANCE WITH THE SUBSCRIPTION
#AGREEMENT. UNAUTHORIZED USE OR DISTRIBUTION OF ALL OR ANY PART OF THIS FILE MAY VIOLATE
#COPYRIGHT, TRADEMARK, AND/OR OTHER LAWS AND IS SUBJECT TO CIVIL AS WELL AS CRIMINAL
#SANCTIONS.
#--------------------------------------------------#
#THIS FILE IS PROVIDED "AS-IS" AND ALL WARRANTIES ARE EXPRESSLY DISCLAIMED, WHETHER
#EXPRESS, ORAL, IMPLIED, STATUTORY OR OTHERWISE, INCLUDING ANY IMPLIED WARRANTY OF FITNESS
#FOR A PARTICULAR PURPOSE, MERCHANTABILITY, TITLE OR NON-INFRINGEMENT, AND ANY WARRANTIES
#ARISING BY VIRTUE OF CUSTOM OF TRADE OR COURSE OF DEALING.  FURTHER, DRILLING INFO,
#INC. AND ITS LICENSORS DO NOT REPRESENT OR WARRANT THAT THIS FILE WILL MEET USER'S
#REQUIREMENTS OR ARE SUITABLE FOR USER'S NEEDS OR THAT THE DATA OR RESULTS PROVIDED IN
#CONJUNCTION THEREWITH ARE CORRECT, ACCURATE, TIMELY OR RELIABLE. THESE DISCLAIMERS SHALL
#APPLY REGARDLESS OF ANY FAILURE OF ESSENTIAL PURPOSE OF ANY LIMITED REMEDY.  SOME
#JURISDICTIONS DO NOT ALLOW THE EXCLUSION OF CERTAIN WARRANTIES SO SOME OF THE ABOVE
#EXCLUSIONS MAY NOT APPLY. IN NO EVENT SHALL DRILLING INFO, INC. OR ANY OF ITS AFFILIATES
#BE LIABLE UNDER ANY LEGAL THEORY, WHETHER IN TORT (INCLUDING WITHOUT LIMITATION
#NEGLIGENCE), CONTRACT, STRICT LIABILITY, STATUTORY OR OTHERWISE, FOR ANY SPECIAL,
#INCIDENTAL, CONSEQUENTIAL, EXEMPLARY, PUNITIVE OR INDIRECT DAMAGE OF ANY KIND, INCLUDING
#WITHOUT LIMITATION LOSS OF REVENUE, PROFITS, GOODWILL, USE, AND/OR DATA OR THE COST OF
#PROCUREMENT OF SUBSTITUTE GOODS OR SERVICES, EVEN IF APPRISED OF THE POSSIBILITY OF SUCH
#DAMAGES IN ADVANCE.
#--------------------------------------------------#
# Exported from DI Transform
# DI Transform - A Product of Drillinginfo, Inc. - www.drillinginfo.com
#--------------------------------------------------#
#
~VERSION INFORMATION
 VERS.        2.0 : LAS ASCII STANDARD - VERSION 2.0
 WRAP.         NO : ONE LINE PER DEPTH STEP

~WELL INFORMATION
#MNEM.UNIT       DATA TYPE       INFORMATION
#---------       ---------       -----------
 STRT.ft           120 : Start Depth
 STOP.ft          9260 : Stop Depth
 STEP.ft           0.5 : Step Length
 NULL.         -999.25 : Null Value
 COMP.                 : Company
 WELL.          DRD_90 : Well Name
 FLD.                  : Field Name
 LOC.                  : Well Location
 CNTY.                 : County
 STAT.                 : State or Province
 CTRY.                 : Country
 SRVC.                 : Service Company
 DATE.                 : Date
 API.   42383308360000 : Well Identifier

~CURVE INFORMATION
#MNEM.UNIT       API CODE       CURVE DESCRIPTION
#---------       --------       -----------------
 DEPT.ft          : <Measured Depth>
 CAL.in           : Caliper
 DPHI.%           : Density Porosity
 DT.us/ft         : Sonic
 GR.gAPI          : Gamma Ray
 LLD.ohmm         : Deep Resistivity
 LLS.ohmm         : Shallow Resistivity
 NPHI.%           : Neutron Porosity
 RHOB.g/cm3       : Density

~PARAMETER INFORMATION
#MNEM.UNIT       VALUE       DESCRIPTION
#---------       -----       -----------
 EKB.ft      2720 : Elevation above MSL

~A       DEPT         CAL        DPHI          DT          GR         LLD         LLS        NPHI        RHOB
# ...
         8296      8.5845      4.1732     82.3775    113.8596     11.4232       5.929     21.1824      2.6119
       8296.5      8.5604      4.2795     82.5101    113.2672     11.4232       6.222     20.9004       2.614
         8297      8.5604      3.9691     82.3107    115.8403     11.4232      6.2853      20.831      2.6162
       8297.5      8.5604      3.2124     80.7914    118.7891     11.8486      6.2853     21.4191      2.6223
         8298      8.5362      4.2875     79.3679    117.3087     11.9786      6.2853     21.3855      2.6331
       8298.5      8.5121      3.5501     78.4075    112.2655     12.2617      6.3396     21.1232      2.6367
         8299      8.5121      3.1131     78.3806    110.5187     12.4631       6.364     20.4049      2.6371
       8299.5      8.5121      2.8155     78.3806    110.8696     12.2844       6.364     20.1053      2.6122
         8300      8.4879      2.4097     78.3806     111.851     12.0063       6.364     20.1591      2.6199
       8300.5      8.4879      2.4311     80.4949    112.6812       11.77       6.364     20.3519       2.646
         8301      8.4879       2.777     81.0471    113.0435     11.0996      6.2853     20.5185       2.646
       8301.5      8.4879      3.7946      81.363    113.8837     11.9201      6.4734     21.2534       2.646
         8302      8.5121      5.4838     82.2403    114.8551     12.5915      6.9282     21.4233      2.6419
       8302.5      8.5121      5.8673     81.3765    114.8228     14.3604      7.3892     22.1027      2.6362
         8303      8.5121      6.0098      81.164    112.2015     16.2765        8.13     22.1518      2.6078
       8303.5      8.5121      6.4944     80.4589    107.2469     17.5396      9.2595     21.6618      2.5881
         8304      8.4717      7.1855     79.3895    101.7466      18.637     11.2503     20.2381      2.5845
       8304.5      8.4507      7.3425     77.5709     97.7826     23.4944     12.8836     19.7649      2.5813
         8305      8.3913      5.0771     73.6427     90.4962     26.8356     14.4468     18.2362      2.5769
       8305.5      8.3913      3.6009     72.4112     87.5796     27.9731     15.1177     16.8931      2.5682
         8306      8.3671      2.6008     72.3887     88.3337     26.7194     15.1177     15.4265      2.5623
       8306.5      8.3671      1.9661     73.6392     90.7758     23.5984     12.3212     15.1506      2.5772
         8307      8.3215      4.4003     77.2208     94.8911     15.7409      9.3703     15.4619      2.6099
       8307.5      8.3188      5.8698     78.9942    100.3782     14.4369      7.3892     17.0373      2.6356
         8308      8.3188      5.6761     79.8402    105.0338     11.6623      6.4973      18.396      2.6435
       8308.5      8.3188      5.4957     80.1529    109.5134     11.2819      6.4317     19.6479      2.6181
         8309       8.343      5.1593     80.1619     113.178     11.4232      6.5244     20.1314      2.6098
       8309.5       8.343      4.7858     79.8696    113.4058     11.2819      6.5244     20.7571      2.5922
         8310      8.3671      4.3019     79.9572    112.6812     11.0264      6.7594     21.0747      2.5916
       8310.5      8.3671      4.8828     80.2698    112.6812     10.8684      7.0935     21.2353      2.5917
         8311      8.3671      5.5872     80.5824    112.3188     10.8684      7.2978     21.4517       2.593
       8311.5      8.3913      4.8756     80.8053    109.5613     11.0693      7.3892     21.8152      2.5962
         8312      8.4056      3.8919      80.341     105.046     11.4727      7.8001     22.2056      2.6149
       8312.5      8.4396      3.7964     79.2084    100.8492      12.974      8.3751     21.7973      2.5926
         8313      8.4476      4.3416     76.8706     96.6197     16.8753     10.9091     20.1322      2.5906
       8313.5      8.4638      4.7858     73.2614     91.6274     19.2431     12.3404     18.1548      2.5856
         8314      8.4155      4.8151     70.4263     87.6547     15.5782      9.7348     17.4153      2.6074
       8314.5      8.4155      4.0801     69.2308     86.2525     11.9165      8.0016     15.1181      2.6209
         8315      8.4155      2.9681     70.9252     87.0482     10.6805      6.5839     13.8408      2.6132
       8315.5      8.3913      1.3668     74.6126     94.7345      9.2447       6.364     14.4531      2.6132
         8316      8.3913      1.3168     78.8693    104.1019       9.171       6.364     17.5394      2.6117
       8316.5      8.4257      3.7315     80.4858    109.6168      9.2447      6.3825     20.0587      2.6101
         8317      8.5362      4.7858     80.4433    111.2319     10.4701      6.8855     20.2969      2.6104
       8317.5      8.5362      4.8918     80.0745    110.8101      10.599      7.3877     20.1053      2.6261
         8318      8.5354      5.0812     79.5751    110.1449     11.2623        7.85     20.0514      2.6413
       8318.5      8.5121      5.2707     79.3434    110.5072     12.0777      8.2381     19.9976      2.6621
         8319      8.4879      6.6093     78.3806    110.5072     12.7647      8.3686     19.2922      2.6469
       8319.5      8.4879      6.8866     78.4478    110.7408     13.7227      8.4977     18.8953       2.612
         8320      8.5245      6.0648     79.3522    110.5072     14.5367     10.0907     18.9082      2.6081
       8320.5      8.5362      5.4109     79.4332    107.0364     15.2552     10.0907     19.3991       2.606
         8321      8.5362      3.8915     79.4332    103.5308     14.8034     10.0907     20.1729      2.5966
       8321.5      8.5362      3.3813     78.3806    102.4909     13.7697      9.8587     20.1288      2.5896
         8322      8.5604      2.5604     78.2996    101.0886     13.2851      9.2806     19.8102      2.5728
       8322.5      8.5604      2.2494     78.2996    101.4006     12.7772      7.5065      19.459      2.5684
         8323      8.5604       3.456      79.289    105.0621     12.5222      7.2978      19.619      2.5663
       8323.5      8.5604      4.3925     78.6449    106.7413      11.822      7.0313      21.033      2.5642
         8324      8.5362      5.4922     78.5425    106.8841     11.2297      6.5973     21.3978      2.6143
       8324.5      8.5362      3.9083      79.307    107.3718     11.0045       6.364     21.4517      2.6293
         8325      8.5362      2.8234     79.5386    110.5856     11.0045      6.4437     21.2784       2.639
       8325.5      8.5362      4.1983     80.0132    114.2871     11.1423      6.6891     21.2409      2.6368
         8326      8.5362      4.2174     80.3239    118.8091     11.1423      7.0971     21.6109      2.6268
       8326.5      8.5362      4.0109     80.4765    117.4541     11.4232      7.2978     22.0642      2.6142
         8327      8.6087      3.8585     80.5668    114.9649     11.6576      7.2978     22.5663      2.6016
       8327.5       8.595      4.6601     80.7779    116.5341     11.5662      7.2978      22.667      2.6339
         8328      8.5845       3.718     80.6098    118.8406     11.9146      7.2978     22.6129      2.6407
       8328.5      8.5604      2.7165     80.5935    119.6766     12.1961      7.2978     22.4584      2.6068
         8329      8.5362      2.4458     80.8251    120.2899     12.4422      7.3164     22.2721      2.5973
       8329.5      8.5604       2.881     80.8949    120.6695     12.7772      7.7675     22.1518      2.6032
         8330      8.5845       3.764     81.2814    124.1414      12.866      8.1515     22.5919       2.608
       8330.5      8.5845      3.6523      82.019    124.7145     13.2245      8.2651     23.1661      2.6133
         8331      8.6087      2.0403     82.4291    124.2754     13.9339      8.3313     23.3851      2.6266
       8331.5      8.5959       3.923       82.47    121.7835     14.9313      8.7431     22.8458      2.6365
         8332      8.5266      4.6584     80.9719    119.0585     15.6693      9.4036     22.1633      2.6402
