#--------------------------------------------------#
#----------------DRILLING INFO, INC.---------------#
#---------------WWW.DRILLINGINFO.COM---------------#
#------------------COPYRIGHT 2018------------------#
#--------------------------------------------------#
#THIS FILE MAY BE USED ONLY IN ACCORDANCE WITH A CURRENT SUBSCRIPTION AGREEMENT BETWEEN
#THE USER AND DRILLING INFO, INC. NO PART OF THIS FILE MAY BE REPRODUCED, USED, COPIED,
#MODIFIED, PROPAGATED, OR DISTRIBUTED EXCEPT IN ACCORDANCE WITH THE SUBSCRIPTION
#AGREEMENT. UNAUTHORIZED USE OR DISTRIBUTION OF ALL OR ANY PART OF THIS FILE MAY VIOLATE
#COPYRIGHT, TRADEMARK, AND/OR OTHER LAWS AND IS SUBJECT TO CIVIL AS WELL AS CRIMINAL
#SANCTIONS.
#--------------------------------------------------#
#THIS FILE IS PROVIDED "AS-IS" AND ALL WARRANTIES ARE EXPRESSLY DISCLAIMED, WHETHER
#EXPRESS, ORAL, IMPLIED, STATUTORY OR OTHERWISE, INCLUDING ANY IMPLIED WARRANTY OF FITNESS
#FOR A PARTICULAR PURPOSE, MERCHANTABILITY, TITLE OR NON-INFRINGEMENT, AND ANY WARRANTIES
#ARISING BY VIRTUE OF CUSTOM OF TRADE OR COURSE OF DEALING.  FURTHER, DRILLING INFO,
#INC. AND ITS LICENSORS DO NOT REPRESENT OR WARRANT THAT THIS FILE WILL MEET USER'S
#REQUIREMENTS OR ARE SUITABLE FOR USER'S NEEDS OR THAT THE DATA OR RESULTS PROVIDED IN
#CONJUNCTION THEREWITH ARE CORRECT, ACCURATE, TIMELY OR RELIABLE. THESE DISCLAIMERS SHALL
#APPLY REGARDLESS OF ANY FAILURE OF ESSENTIAL PURPOSE OF ANY LIMITED REMEDY.  SOME
#JURISDICTIONS DO NOT ALLOW THE EXCLUSION OF CERTAIN WARRANTIES SO SOME OF THE ABOVE
#EXCLUSIONS MAY NOT APPLY. IN NO EVENT SHALL DRILLING INFO, INC. OR ANY OF ITS AFFILIATES
#BE LIABLE UNDER ANY LEGAL THEORY, WHETHER IN TORT (INCLUDING WITHOUT LIMITATION
#NEGLIGENCE), CONTRACT, STRICT LIABILITY, STATUTORY OR OTHERWISE, FOR ANY SPECIAL,
#INCIDENTAL, CONSEQUENTIAL, EXEMPLARY, PUNITIVE OR INDIRECT DAMAGE OF ANY KIND, INCLUDING
#WITHOUT LIMITATION LOSS OF REVENUE, PROFITS, GOODWILL, USE, AND/OR DATA OR THE COST OF
#PROCUREMENT OF SUBSTITUTE GOODS OR SERVICES, EVEN IF APPRISED OF THE POSSIBILITY OF SUCH
#DAMAGES IN ADVANCE.
#--------------------------------------------------#
# Exported from DI Transform
# DI Transform - A Product of Drillinginfo, Inc. - www.drillinginfo.com
#--------------------------------------------------#
#
~VERSION INFORMATION
 VERS.        2.0 : LAS ASCII STANDARD - VERSION 2.0
 WRAP.         NO : ONE LINE PER DEPTH STEP

~WELL INFORMATION
#MNEM.UNIT       DATA TYPE       INFORMATION
#---------       ---------       -----------
 STRT.ft           120 : Start Depth
 STOP.ft          9260 : Stop Depth
 STEP.ft           0.5 : Step Length
 NULL.         -999.25 : Null Value
 COMP.                 : Company
 WELL.          DRD_90 : Well Name
 FLD.                  : Field Name
 LOC.                  : Well Location
 CNTY.                 : County
 STAT.                 : State or Province
 CTRY.                 : Country
 SRVC.                 : Service Company
 DATE.                 : Date
 API.   42383308360000 : Well Identifier

~CURVE INFORMATION
#MNEM.UNIT       API CODE       CURVE DESCRIPTION
#---------       --------       -----------------
 DEPT.ft          : <Measured Depth>
 CAL.in           : Caliper
 DPHI.%           : Density Porosity
 DT.us/ft         : Sonic
 GR.gAPI          : Gamma Ray
 LLD.ohmm         : Deep Resistivity
 LLS.ohmm         : Shallow Resistivity
 NPHI.%           : Neutron Porosity
 RHOB.g/cm3       : Density

~PARAMETER INFORMATION
#MNEM.UNIT       VALUE       DESCRIPTION
#---------       -----       -----------
 EKB.ft      2720 : Elevation above MSL

~A       DEPT         CAL        DPHI          DT          GR         LLD         LLS        NPHI        RHOB
# ...
       2930.5        9.43      6.8061     67.3637     52.2217     18.1045     12.7772     15.4808      2.5819
         2931        9.43      6.9399     68.5636     52.8978     18.5058     12.5817     15.5813      2.5722
       2931.5        9.43      6.7504     70.2919     52.5362     18.0529     11.9062     15.1746      2.5695
         2932      9.4479       7.019     71.6107     56.0551      16.392     11.3364     14.8813      2.5664
       2932.5      9.5024      7.3387     71.9028     58.3855     14.3153     10.8179     14.7736      2.5659
         2933      9.5141      7.6001     72.0648     61.8503      13.812      9.0518     15.0131      2.5638
       2933.5      9.5266      7.7896     71.9838     64.6206     13.1058      8.7834     15.1506       2.561
         2934      9.5507      7.8812     72.1134     64.8551     12.5416      8.5337     15.0308      2.5583
       2934.5      9.5749      8.7208     72.2267     65.1836     12.1566      8.3113     14.7973      2.5493
         2935       9.599      8.7533     72.4958     63.9692     12.1566      8.1465     13.8639      2.5428
       2935.5      9.6192      8.2374     72.5506     63.1038     12.0063      7.9251     13.8042      2.5395
         2936      9.6885       7.591     72.5506     64.3854     11.8576       7.517     13.6586      2.5391
       2936.5      9.7871      7.6712     73.3223     66.0727     11.7111      7.4861     13.5887      2.5397
         2937      9.8164      7.8703     73.5223     67.3913     11.7111      7.4817     13.5887      2.5404
       2937.5      9.8406      7.7877     73.5731     67.5051     11.3342      7.4817     13.5887      2.5404
         2938      9.8406      7.9733     73.8858     70.7189     11.0045      6.8793      13.525      2.5404
       2938.5      9.8647       9.048     74.0081     71.3768     10.9525      6.5244     13.4272      2.5395
         2939      9.8871      9.2374     74.0081     72.0741     10.6997      6.5244     13.6304      2.5372
       2939.5       9.913     11.5652     74.0891     72.8261      10.619      6.4437     14.4283      2.5325
         2940       9.913     12.1623     74.2456     72.8261     10.6012       6.364     14.7375      2.5227
       2940.5      9.9614     12.2994      74.251     72.1014     10.4849      5.7311     15.0178      2.5004
         2941      9.9614     12.0055      74.533     71.3768      9.5059      5.6193     15.2917      2.4854
       2941.5      9.9922     10.5525     74.8596     71.7391      9.4778      5.5059     15.5666      2.4703
         2942     10.0097     11.0526     75.1723     72.8788      8.9306      5.4133     15.2118      2.4767
       2942.5     10.0097     11.8172     75.3036      73.913      8.3686      4.6623     14.9351      2.4894
         2943     10.0338     12.3689     75.5466     73.5921       7.645      4.6046     14.3196      2.4928
       2943.5     10.0338      13.405     75.6243     72.9145      7.5754      4.4358     14.4983      2.4922
         2944     10.0338     14.1188     75.6275     70.0369      7.5754      4.4358     15.2381      2.4715
       2944.5     10.0338     14.2107     75.4913     67.7249      7.5754       4.381     15.7557      2.4605
         2945     10.0338     14.0212     75.4656     68.5325      7.6703       4.381     16.7124      2.4432
       2945.5     10.0395      13.149     75.4656       69.34      7.9275       4.381     16.9278      2.4415
         2946      10.058     12.3693     75.4656     70.5797      7.6703      4.4358     16.8143      2.4394
       2946.5     10.1299     11.4534     75.3846     71.9256      7.6703      4.3268     16.7136      2.4459
         2947     10.1304     12.3901     75.4646     73.2715      7.6969       4.202     16.6129      2.4631
       2947.5     10.1304      13.169     75.5466     74.6174      7.5754       3.766     16.6971        2.48
         2948     10.1304      14.186      75.604     74.8386      7.3789      3.5899     16.6871      2.4834
       2948.5     10.1304     14.7702     75.8356     74.5022      6.6062      3.4625     16.5216      2.4622
         2949     10.1262     15.5548     76.5532     73.5586      5.9605      3.2994     17.0889      2.4466
       2949.5     10.1304     15.8017     76.7849     72.1095      5.6193      3.1051     18.0788      2.4312
         2950     10.1304     14.4913     77.0975     68.7566      5.5497      2.9589     18.7338      2.4142
       2950.5     10.1304     13.2791     77.3267     67.4127      5.3193      2.6842     18.3852      2.4059
         2951     10.1304     13.3537      77.247     67.6223      5.2991      2.6962     18.3716      2.4024
       2951.5     10.1304     13.5854     77.3279      68.071      5.3463      2.6629     18.2915      2.3977
         2952     10.1304      13.995     77.3279     68.5196      5.3463      2.6629     18.3037      2.4426
       2952.5     10.1063     14.9899      77.247     68.8038      5.3463      2.7271     18.3819      2.4432
         2953     10.1063     15.4572     77.1401     68.8038      5.4133        2.73     18.4902      2.4407
       2953.5     10.1063     15.1241     76.9231     68.8038      5.4133      2.7075     18.9119      2.4334
         2954     10.1063     15.2113     76.9231     68.8038       5.377      2.6962     18.8127       2.423
       2954.5     10.0846     14.3379      77.004     68.8038      5.3187      2.6962     18.8612        2.42
         2955     10.0821     14.1484      77.004     68.8038       5.261        2.63     18.7713      2.4191
       2955.5      10.058     13.3509     77.2166     68.8038      5.0391        2.63     18.5973      2.4416
         2956      10.058     15.8017     77.5293     68.8038       4.777        2.63      18.705      2.4167
       2956.5     10.0321     15.3288     77.8419     68.8038      4.6623      2.5999     18.7282      2.4144
         2957      9.9614     14.8837     77.9926     68.8038      4.6623       2.591     18.2203      2.4122
       2957.5      9.9372     13.9009      78.294     68.8038      4.6046      2.6194     18.1729      2.4093
         2958       9.913     12.6678     78.0623     68.9422      4.6364      2.6962     18.2742      2.4287
       2958.5       9.913     13.7192     77.7581     69.2114        5.07      2.8757      18.328       2.452
         2959      9.8889     14.4666     77.1992     69.4806      5.5445       3.248     18.3425      2.4645
       2959.5      9.8889     14.5382     75.3211     68.5601      6.4583      3.7477     19.2113      2.4322
         2960       9.913      14.494     73.8261     67.5507      7.0972      4.1225      19.459       2.428
       2960.5       9.913     14.0386     71.9647     66.9463      7.7599      5.5142     19.3953      2.4272
         2961       9.913     12.7531     69.3011     65.6004     11.5389      6.4346     18.8552      2.4266
       2961.5       9.913     12.0919     65.8338     64.2545     12.1092     18.4358      18.871      2.4381
         2962      9.9142     10.2788     63.7533     62.9086     12.7525     18.7933      19.132      2.4652
       2962.5       9.913      8.1735     61.0915      56.877     21.5084     19.4854     19.2436      2.5066
         2963       9.913      7.2119     59.1756     53.2334      44.914     22.3707     19.1525      2.5408
       2963.5      9.8647      3.5561     57.3759     44.0561     35.3721     18.7933     19.0517      2.5801
         2964      9.8406      1.3661     55.7192     36.2764     33.4699     18.8087     18.9976      2.6157
       2964.5      9.6883     -0.2377       54.16     28.0207     32.4968      19.267     19.2436      2.6493
         2965      9.5949     -0.3025     53.3276     22.9696     34.0787     23.0162     19.2529      2.6969
       2965.5      9.5255      1.3404      52.644     19.5343     33.6691      26.629     18.2742      2.6692
         2966      9.4804      1.9908     52.5506     18.5098     41.8685     27.8394     17.3751      2.6643
       2966.5      9.4783      2.2868     52.7126     17.8323     43.8097     28.3388     16.9933      2.6586
