#--------------------------------------------------#
#----------------DRILLING INFO, INC.---------------#
#---------------WWW.DRILLINGINFO.COM---------------#
#------------------COPYRIGHT 2018------------------#
#--------------------------------------------------#
#THIS FILE MAY BE USED ONLY IN ACCORDANCE WITH A CURRENT SUBSCRIPTION AGREEMENT BETWEEN
#THE USER AND DRILLING INFO, INC. NO PART OF THIS FILE MAY BE REPRODUCED, USED, COPIED,
#MODIFIED, PROPAGATED, OR DISTRIBUTED EXCEPT IN ACCORDANCE WITH THE SUBSCRIPTION
#AGREEMENT. UNAUTHORIZED USE OR DISTRIBUTION OF ALL OR ANY PART OF THIS FILE MAY VIOLATE
#COPYRIGHT, TRADEMARK, AND/OR OTHER LAWS AND IS SUBJECT TO CIVIL AS WELL AS CRIMINAL
#SANCTIONS.
#--------------------------------------------------#
#THIS FILE IS PROVIDED "AS-IS" AND ALL WARRANTIES ARE EXPRESSLY DISCLAIMED, WHETHER
#EXPRESS, ORAL, IMPLIED, STATUTORY OR OTHERWISE, INCLUDING ANY IMPLIED WARRANTY OF FITNESS
#FOR A PARTICULAR PURPOSE, MERCHANTABILITY, TITLE OR NON-INFRINGEMENT, AND ANY WARRANTIES
#ARISING BY VIRTUE OF CUSTOM OF TRADE OR COURSE OF DEALING.  FURTHER, DRILLING INFO,
#INC. AND ITS LICENSORS DO NOT REPRESENT OR WARRANT THAT THIS FILE WILL MEET USER'S
#REQUIREMENTS OR ARE SUITABLE FOR USER'S NEEDS OR THAT THE DATA OR RESULTS PROVIDED IN
#CONJUNCTION THEREWITH ARE CORRECT, ACCURATE, TIMELY OR RELIABLE. THESE DISCLAIMERS SHALL
#APPLY REGARDLESS OF ANY FAILURE OF ESSENTIAL PURPOSE OF ANY LIMITED REMEDY.  SOME
#JURISDICTIONS DO NOT ALLOW THE EXCLUSION OF CERTAIN WARRANTIES SO SOME OF THE ABOVE
#EXCLUSIONS MAY NOT APPLY. IN NO EVENT SHALL DRILLING INFO, INC. OR ANY OF ITS AFFILIATES
#BE LIABLE UNDER ANY LEGAL THEORY, WHETHER IN TORT (INCLUDING WITHOUT LIMITATION
#NEGLIGENCE), CONTRACT, STRICT LIABILITY, STATUTORY OR OTHERWISE, FOR ANY SPECIAL,
#INCIDENTAL, CONSEQUENTIAL, EXEMPLARY, PUNITIVE OR INDIRECT DAMAGE OF ANY KIND, INCLUDING
#WITHOUT LIMITATION LOSS OF REVENUE, PROFITS, GOODWILL, USE, AND/OR DATA OR THE COST OF
#PROCUREMENT OF SUBSTITUTE GOODS OR SERVICES, EVEN IF APPRISED OF THE POSSIBILITY OF SUCH
#DAMAGES IN ADVANCE.
#--------------------------------------------------#
# Exported from DI Transform
# DI Transform - A Product of Drillinginfo, Inc. - www.drillinginfo.com
#--------------------------------------------------#
#
~VERSION INFORMATION
 VERS.        2.0 : LAS ASCII STANDARD - VERSION 2.0
 WRAP.         NO : ONE LINE PER DEPTH STEP

~WELL INFORMATION
#MNEM.UNIT       DATA TYPE       INFORMATION
#---------       ---------       -----------
 STRT.ft           120 : Start Depth
 STOP.ft          9260 : Stop Depth
 STEP.ft           0.5 : Step Length
 NULL.         -999.25 : Null Value
 COMP.                 : Company
 WELL.          DRD_90 : Well Name
 FLD.                  : Field Name
 LOC.                  : Well Location
 CNTY.                 : County
 STAT.                 : State or Province
 CTRY.                 : Country
 SRVC.                 : Service Company
 DATE.                 : Date
 API.   42383308360000 : Well Identifier

~CURVE INFORMATION
#MNEM.UNIT       API CODE       CURVE DESCRIPTION
#---------       --------       -----------------
 DEPT.ft          : <Measured Depth>
 CAL.in           : Caliper
 DPHI.%           : Density Porosity
 DT.us/ft         : Sonic
 GR.gAPI          : Gamma Ray
 LLD.ohmm         : Deep Resistivity
 LLS.ohmm         : Shallow Resistivity
 NPHI.%           : Neutron Porosity
 RHOB.g/cm3       : Density

~PARAMETER INFORMATION
#MNEM.UNIT       VALUE       DESCRIPTION
#---------       -----       -----------
 EKB.ft      2720 : Elevation above MSL

~A       DEPT         CAL        DPHI          DT          GR         LLD         LLS        NPHI        RHOB
# ...
         3843      7.6223     26.3872    153.6651     52.2325      2.6967      0.7602     29.9774      1.5692
       3843.5      7.7418     26.3872    141.0663      56.171      4.0083      0.8129     29.9766      1.6287
         3844      7.9324     26.3872    126.5432      58.099      5.4811      1.7244     29.9757      1.7406
       3844.5      8.5348     26.3872      103.15     61.1655      6.4235      2.1935     29.9749      1.7237
         3845      9.5024     26.3872     96.3301     62.9139      7.1579      3.5827     29.9741      1.7099
       3845.5      9.4058     26.3872     99.9704      64.409      7.0555      4.0013     29.9733      1.6814
         3846      9.5117     26.3872    102.5326     69.0597      5.6752      3.7972     29.9724      1.6385
       3846.5      9.5697     26.3872    101.2961     75.1395      4.6046      3.3123     29.9716      1.7662
         3847      9.2821     26.3872     99.2948       78.35      4.5771      3.1629     29.9708      1.9752
       3847.5      9.2849     26.3872     97.6979     84.4203      4.7667      3.5381       29.97      2.1716
         3848      9.9795     26.3872     96.4372     85.0954      5.2961      3.5942     29.9691      2.1881
       3848.5     10.0952     27.8523     96.1679     86.4976      6.5221      4.4898     29.9683      2.1995
         3849     10.1131     28.0369    102.5453     85.5415       6.364       4.421     29.9675      2.2071
       3849.5     10.4808     26.8691    105.0233     84.2486      5.1311      3.1469     29.9667      2.2092
         3850     11.1696     26.4091    105.9936      86.946      4.8639      2.9935     29.9658      2.2113
       3850.5     11.8793     26.2196    106.3175     95.0051      3.8299      3.0158      29.965      2.2186
         3851     10.3301      26.167    101.3153     96.6037      3.7898      3.1941     29.9642      2.1817
       3851.5     10.4939      26.496     99.7753     98.1884      4.2733      3.5899     29.9633      1.9982
         3852     10.2476     27.4099     95.9947     98.5507      4.3867      3.5899     29.9625      1.8008
       3852.5     10.1728     26.4899     95.7085     95.9536      5.1492      3.7723     29.9617       1.675
         3853     10.3856      26.377     95.0002     90.5729      5.2149      3.7732     29.9609      1.6451
       3853.5     10.6456      26.377     94.0233     84.1839      5.2149      3.7265       29.96      1.8474
         3854     10.6786      26.362     93.5959     80.3242      4.6851      3.7265     29.9592      2.0503
       3854.5     10.5851     26.1726     94.5563     82.2016      4.6623      3.6804     29.9584      2.1858
         3855     10.4384     26.2323     95.6146     84.7991      4.6623      3.6804     29.9576      2.1915
       3855.5     10.1104     26.4218    102.6875     85.8696      4.7207      3.5624     29.9567      2.2066
         3856     10.1011     26.9296    103.3198     86.2319      4.5412      3.5455     29.9559      2.2104
       3856.5     10.1946     26.4428    102.5477     86.4695      4.2478      3.2113     29.9551      2.2294
         3857     10.4616      26.328    100.8785     86.0413      3.6804      3.1306     29.9543      2.2056
       3857.5     10.6712      26.377     94.3825     86.2319      3.7325      3.2695     29.9534      1.8573
         3858     10.5346      26.377      90.326     86.5942      4.4702      3.3733     29.9526      1.8496
       3858.5     10.4137     26.3213     90.0248     86.5447      4.6623      4.2091     29.9518      1.8364
         3859     10.2741     26.3284      90.223     85.1413       4.802      4.3646      29.951      1.8224
       3859.5       9.893      26.377     91.9856      83.378      5.2149      4.3646     29.9501      1.8989
         3860     10.5108      26.377      92.876     83.2417      5.0713      4.3646     29.9493       2.175
       3860.5     10.8895     26.3468     107.359     84.0311      4.7798      4.2863     29.9485       2.177
         3861     10.9034      26.205    110.9599     85.8604      4.4984      3.6878     29.9476       2.182
       3861.5     10.5566     26.4121    110.8311     88.8976      4.0928      3.3006     29.9468      2.2704
         3862     10.3377     23.2324    108.1516     88.6857      3.6634        2.73      29.946      2.3416
       3862.5      9.9293     22.4806     88.6564     86.7222      3.6125      3.1381     29.9452      2.1587
         3863     10.0252     25.8094     77.5434     84.8059      3.3005      3.7794     29.9443      2.0995
       3863.5     10.1367     26.5354     75.4656     83.0297      3.5918       5.255     29.9439      2.0941
         3864     10.1702      26.377     77.7504     82.6087      4.5628      7.1302     29.9439      2.1042
       3864.5     10.2188     26.3487     83.5189     82.8182      8.5795      7.1569     29.9439      2.1141
         3865     10.4055      26.301     86.2963     83.6957      7.9775      6.4437     29.9439      2.1687
       3865.5     10.4367     26.3926     89.6352     84.2312      7.4114      5.4811     29.9439       2.296
         3866     10.0238     26.5636      90.087     87.6368      5.9092      5.0466     29.9439      2.4452
       3866.5      9.6942      26.377     92.3042     89.4714       5.463      4.5461     29.9439      2.5244
         3867      9.5671      11.184     94.1998     88.4315      5.2802      4.0559     29.8134      2.5318
       3867.5      9.3044      8.1789     94.7241     87.0292       4.381      4.0204     28.7941      2.5121
         3868      9.1722       8.458     94.6595     87.8638      4.5476      3.9865     28.6217       2.504
       3868.5      9.1643     10.2755     95.4006     92.2245      4.6046      3.9865     28.7546      2.4896
         3869      9.1643      10.858     96.1927     93.2644      4.7145      3.9865     29.0674      2.5094
       3869.5      9.1643     11.0663     96.6965     91.6957      4.6179      3.9865     29.2456      2.5192
         3870      9.1643     10.3084     97.4215     90.2174      4.6046      3.9429     28.8299      2.5214
       3870.5      9.2367       9.437     97.5447     90.5797      4.5476      3.9149     29.4519      2.5161
         3871      9.2367       9.437     97.3279     91.6269       4.458      3.8773     29.8472      2.5013
       3871.5      9.2609     10.3479     96.5182     92.8046      4.4914      3.8173     30.0018      2.4876
         3872      9.2609     11.1724     96.4372     96.2708      4.4914      3.7895     30.2102      2.4865
       3872.5      9.2609     11.5061     96.5182     95.9232      4.4914      4.0974     30.1493      2.4852
         3873      9.2609     11.3926     96.4673     93.7062      4.5476      4.1337     30.3139      2.4837
       3873.5      9.2609     11.2974     96.2357     93.3909      4.5476      4.1337     30.5662      2.4816
         3874      9.2636      11.447     96.1417     91.6263      4.5476      4.1088     30.3857      2.4808
       3874.5       9.285     11.4452     96.2115     90.2241      4.5476      4.0827     30.1773      2.4777
         3875       9.285     11.7226     96.4372     89.8551      4.5476      4.0594     30.0765       2.474
       3875.5       9.285     12.4384     96.4372     90.8412      4.5476      4.0038     29.9608      2.4719
         3876       9.285     12.5069     96.8721     92.8941      4.3723       3.874     29.9608      2.4715
       3876.5       9.285      12.303     97.4089     94.5939      4.3268      3.7756     29.9319      2.4763
         3877       9.285      11.477     97.4899     97.1014      4.3316      3.7756     29.9608      2.4805
       3877.5       9.285     11.3464     97.5403     98.2617      4.2733      3.7756     29.9608      2.4839
         3878       9.285     11.2325     95.9254     98.5507      4.2733      3.7756     29.9647      2.4868
       3878.5       9.285     10.5484     93.7006     97.3138      4.3268      3.8287     30.1732      2.5013
         3879      9.2609      9.6328     91.5821     96.3768      3.6086      3.9655     30.4893      2.5137
