#--------------------------------------------------#
#----------------DRILLING INFO, INC.---------------#
#---------------WWW.DRILLINGINFO.COM---------------#
#------------------COPYRIGHT 2018------------------#
#--------------------------------------------------#
#THIS FILE MAY BE USED ONLY IN ACCORDANCE WITH A CURRENT SUBSCRIPTION AGREEMENT BETWEEN
#THE USER AND DRILLING INFO, INC. NO PART OF THIS FILE MAY BE REPRODUCED, USED, COPIED,
#MODIFIED, PROPAGATED, OR DISTRIBUTED EXCEPT IN ACCORDANCE WITH THE SUBSCRIPTION
#AGREEMENT. UNAUTHORIZED USE OR DISTRIBUTION OF ALL OR ANY PART OF THIS FILE MAY VIOLATE
#COPYRIGHT, TRADEMARK, AND/OR OTHER LAWS AND IS SUBJECT TO CIVIL AS WELL AS CRIMINAL
#SANCTIONS.
#--------------------------------------------------#
#THIS FILE IS PROVIDED "AS-IS" AND ALL WARRANTIES ARE EXPRESSLY DISCLAIMED, WHETHER
#EXPRESS, ORAL, IMPLIED, STATUTORY OR OTHERWISE, INCLUDING ANY IMPLIED WARRANTY OF FITNESS
#FOR A PARTICULAR PURPOSE, MERCHANTABILITY, TITLE OR NON-INFRINGEMENT, AND ANY WARRANTIES
#ARISING BY VIRTUE OF CUSTOM OF TRADE OR COURSE OF DEALING.  FURTHER, DRILLING INFO,
#INC. AND ITS LICENSORS DO NOT REPRESENT OR WARRANT THAT THIS FILE WILL MEET USER'S
#REQUIREMENTS OR ARE SUITABLE FOR USER'S NEEDS OR THAT THE DATA OR RESULTS PROVIDED IN
#CONJUNCTION THEREWITH ARE CORRECT, ACCURATE, TIMELY OR RELIABLE. THESE DISCLAIMERS SHALL
#APPLY REGARDLESS OF ANY FAILURE OF ESSENTIAL PURPOSE OF ANY LIMITED REMEDY.  SOME
#JURISDICTIONS DO NOT ALLOW THE EXCLUSION OF CERTAIN WARRANTIES SO SOME OF THE ABOVE
#EXCLUSIONS MAY NOT APPLY. IN NO EVENT SHALL DRILLING INFO, INC. OR ANY OF ITS AFFILIATES
#BE LIABLE UNDER ANY LEGAL THEORY, WHETHER IN TORT (INCLUDING WITHOUT LIMITATION
#NEGLIGENCE), CONTRACT, STRICT LIABILITY, STATUTORY OR OTHERWISE, FOR ANY SPECIAL,
#INCIDENTAL, CONSEQUENTIAL, EXEMPLARY, PUNITIVE OR INDIRECT DAMAGE OF ANY KIND, INCLUDING
#WITHOUT LIMITATION LOSS OF REVENUE, PROFITS, GOODWILL, USE, AND/OR DATA OR THE COST OF
#PROCUREMENT OF SUBSTITUTE GOODS OR SERVICES, EVEN IF APPRISED OF THE POSSIBILITY OF SUCH
#DAMAGES IN ADVANCE.
#--------------------------------------------------#
# Exported from DI Transform
# DI Transform - A Product of Drillinginfo, Inc. - www.drillinginfo.com
#--------------------------------------------------#
#
~VERSION INFORMATION
 VERS.        2.0 : LAS ASCII STANDARD - VERSION 2.0
 WRAP.         NO : ONE LINE PER DEPTH STEP

~WELL INFORMATION
#MNEM.UNIT       DATA TYPE       INFORMATION
#---------       ---------       -----------
 STRT.ft           120 : Start Depth
 STOP.ft          9260 : Stop Depth
 STEP.ft           0.5 : Step Length
 NULL.         -999.25 : Null Value
 COMP.                 : Company
 WELL.          DRD_90 : Well Name
 FLD.                  : Field Name
 LOC.                  : Well Location
 CNTY.                 : County
 STAT.                 : State or Province
 CTRY.                 : Country
 SRVC.                 : Service Company
 DATE.                 : Date
 API.   42383308360000 : Well Identifier

~CURVE INFORMATION
#MNEM.UNIT       API CODE       CURVE DESCRIPTION
#---------       --------       -----------------
 DEPT.ft          : <Measured Depth>
 CAL.in           : Caliper
 DPHI.%           : Density Porosity
 DT.us/ft         : Sonic
 GR.gAPI          : Gamma Ray
 LLD.ohmm         : Deep Resistivity
 LLS.ohmm         : Shallow Resistivity
 NPHI.%           : Neutron Porosity
 RHOB.g/cm3       : Density

~PARAMETER INFORMATION
#MNEM.UNIT       VALUE       DESCRIPTION
#---------       -----       -----------
 EKB.ft      2720 : Elevation above MSL

~A       DEPT         CAL        DPHI          DT          GR         LLD         LLS        NPHI        RHOB
# ...
       6507.5      8.1256      8.9711     68.2514    106.4541    163.2229    141.7281     19.9429      2.5283
         6508      8.1256      9.6856     68.2019    109.3681    153.6108     99.3648     20.9259      2.5304
       6508.5      8.1256     10.2668     71.2288    110.8696    106.4646     77.8616     21.2362      2.5271
         6509      8.1498      9.9278     75.3272    111.2319     88.2587     64.4374     21.3686        2.52
       6509.5      8.1498     10.3102     83.3299    106.5721     94.2898     69.5907     22.0979      2.5172
         6510      8.1498      9.4311     84.3811     98.0438    162.4543     137.679     21.1747      2.5152
       6510.5      8.1498      7.7049     87.7483     80.8972    243.1199    149.0582     18.5737      2.5141
         6511      8.1498      6.4235     88.0695     77.8986    261.0882    168.3003     16.3138      2.5172
       6511.5      8.1739      5.2754     86.3104     79.8102    192.4436    116.6606     13.6334      2.5194
         6512      8.1739      5.4732     85.4177     87.0747    128.5088     81.4135     14.2383      2.5267
       6512.5      8.1739      7.0591     78.1965    104.5155     87.8609     70.5841     15.8004      2.5721
         6513      8.1739      9.4436     73.7192    118.4478       73.65     59.9627     19.5622       2.589
       6513.5      8.1739     10.8863     69.4374    129.3765     65.1228      54.811     22.1612      2.5936
         6514      8.1739       11.94     65.5364    130.8243     68.5234      51.504     25.0084      2.5964
       6514.5      8.1498     12.2681     64.6984    121.5508     72.6111     71.8767     25.1677      2.5509
         6515      8.1498      12.019      66.263    112.9326     76.6512    156.6259     24.9921      2.5157
       6515.5      8.1498     11.2994     70.0655    100.2341    137.7571    184.1064     24.5704      2.4918
         6516      8.1498     10.6609     77.3336     95.6494    241.5998    397.6791     23.5505      2.4851
       6516.5      8.1498      10.386     79.9524     82.5349   2033.1496    424.2982     21.0968      2.4826
         6517      8.1256      8.8282      76.697     71.5289   2954.1283    460.4603     17.9052      2.4854
       6517.5      8.1256      6.9466     69.4208     64.2304   1361.0797    455.6169     14.9331      2.4915
         6518      8.1256      6.3578     66.6085     64.6674    480.3558    251.0801     13.0112      2.5057
       6518.5      8.1171      6.4677     68.6796     74.3372    255.7965    226.4681      11.631      2.5099
         6519      8.1014      6.8286     77.9228     82.8313    173.2853    114.9774      12.449      2.5245
       6519.5      8.1014      8.0983     83.8086      96.387    181.8499    130.6841     14.5856      2.5592
         6520      8.1014     10.1712     84.4534     111.637    190.8375    253.9934      17.866      2.5711
       6520.5      8.1216     11.2892     83.7938    109.4212    289.9276    274.4204     19.3287      2.5748
         6521      8.1256     10.7826      82.536     87.0586     339.542     299.155     20.4263      2.5848
       6521.5      8.1498      9.1276     82.7817     74.4542    296.5494     95.8045     13.6214      2.5514
         6522      8.1498      6.3394     84.9398     79.9083     93.4145     71.8193     13.0441      2.5131
       6522.5      8.1498      6.8575     85.6894     86.5541     76.3086     65.2444     13.3363      2.5064
         6523      8.1498      7.5855     84.9041    105.9524     78.1282     65.2444     18.4907      2.5009
       6523.5      8.1485     10.1593     82.6778    116.7544     85.7951     65.2444     21.4115      2.5475
         6524      8.1256     11.0489     78.4739    115.4399     86.0533     61.1257     22.9596      2.5733
       6524.5      8.1256     11.1117     76.7566    112.1803     64.3446     58.0814     23.0135        2.58
         6525      8.1256     10.5305     77.2923    110.7479     62.0815     52.4919     22.0979      2.5683
       6525.5      8.1256      10.341      79.776     112.247     45.0872     44.5499     22.1912      2.5086
         6526      8.1256     10.2151     82.7766    113.9838     45.4329     43.5162     23.7533      2.4977
       6526.5      8.1498      9.0033     84.9206    112.1973     45.9406     43.5162     25.3245      2.5067
         6527      8.1498       6.139     84.4508    104.1352     46.6788     43.6622     25.2754      2.5081
       6527.5       8.174      5.7525     82.8394     93.6485     47.4288     45.4765     24.4864      2.5081
         6528      8.1739      6.8281     80.1834      92.029     48.1909     49.1557     23.3044      2.5089
       6528.5      8.1557      5.6746     79.6932     93.1641     48.9653     52.3142     21.4997      2.5139
         6529      8.1498       6.579      78.391    101.2696      49.752     53.4635     20.7515      2.5504
       6529.5      8.1498      6.9875     77.3316    108.6862     50.9108     55.4137     22.0293      2.5799
         6530      8.1498     10.0967     76.5079     111.824     53.3008     59.6187     22.2063       2.582
       6530.5      8.1498     10.8122     75.6661    105.8602     56.6361     62.5657     23.7802      2.5886
         6531      8.1498     10.6209     67.0333    101.3339     73.6364     64.4374     23.4145      2.5781
       6531.5      8.1262     10.3194     62.5827     93.3701    105.9663     72.3885     23.3366      2.5717
         6532      8.1256      9.6403     58.5488     87.5828    122.0012     98.7021     22.5639      2.5618
       6532.5      8.1256      8.9775     55.9557     82.5786    168.3011    104.9611      20.274      2.5352
         6533      8.1256      9.7588     52.6846      76.379    176.6182    192.4058     20.4284      2.5126
       6533.5      8.1256     11.1197      51.498     64.3912    188.4521    549.3911       20.59      2.5076
         6534      8.1256       9.976     52.8477      53.867    436.6958   1215.0174     17.2514      2.5018
       6534.5      8.1256      7.7106     55.0029     43.3404    531.6192   1966.4513     13.5394      2.5018
         6535      8.1014      3.0635     60.9655     36.3032    726.3062        2000     10.4076      2.5018
       6535.5      8.0773     -0.6472     69.2127     32.6313    809.4514        2000      8.2924      2.5018
         6536      8.0773        -2.7     77.6425     32.6087    673.5574        2000      7.1903      2.5034
       6536.5      8.0695      -2.401     81.6272     35.0926    433.9511   1971.7432      5.5816      2.5096
         6537      8.1014     -1.9378     87.3064     38.3413    215.4538    721.1153      5.3193      2.5264
       6537.5      8.1014      0.5673     88.5097       46.38    205.3074    129.8109      5.3077      2.5418
         6538      8.1014      1.4918     87.5149     51.0967    152.1318     64.1963       6.603      2.5953
       6538.5      8.1256      4.0463     86.9088     65.4291       45.89     53.4072      8.5738      2.6626
         6539      8.1256      5.9259     81.1069       77.94     42.3209     42.1394     13.3125      2.7267
       6539.5      8.1498       8.697     78.0404     90.5774     38.7348     39.0443     18.4167      2.7188
         6540      8.1498      8.8381     75.0688     93.0322     36.6994     37.0386     19.9313      2.7026
       6540.5      8.1739      9.9409     74.7368     94.4344     38.1544     35.9802     24.2327      2.6855
         6541      8.1981        8.97     77.4929     93.6561     39.6672     37.2802     24.4818      2.6801
       6541.5      8.1981      8.5523     79.8532     90.5547     44.7525     41.4277     24.5812       2.669
         6542      8.1981      7.7418      82.727     85.7809     65.9291     56.0995     23.5321      2.6391
       6542.5      8.1739      5.7529     81.9578     78.2175     97.1124     90.8933     21.4703       2.592
         6543      8.1739      5.0427     77.0284     78.8025    104.0295     107.224     18.9779      2.5408
       6543.5      8.1739      7.7414     74.5407     86.9601     74.0099     91.4802     18.8127      2.5125
