#--------------------------------------------------#
#----------------DRILLING INFO, INC.---------------#
#---------------WWW.DRILLINGINFO.COM---------------#
#------------------COPYRIGHT 2018------------------#
#--------------------------------------------------#
#THIS FILE MAY BE USED ONLY IN ACCORDANCE WITH A CURRENT SUBSCRIPTION AGREEMENT BETWEEN
#THE USER AND DRILLING INFO, INC. NO PART OF THIS FILE MAY BE REPRODUCED, USED, COPIED,
#MODIFIED, PROPAGATED, OR DISTRIBUTED EXCEPT IN ACCORDANCE WITH THE SUBSCRIPTION
#AGREEMENT. UNAUTHORIZED USE OR DISTRIBUTION OF ALL OR ANY PART OF THIS FILE MAY VIOLATE
#COPYRIGHT, TRADEMARK, AND/OR OTHER LAWS AND IS SUBJECT TO CIVIL AS WELL AS CRIMINAL
#SANCTIONS.
#--------------------------------------------------#
#THIS FILE IS PROVIDED "AS-IS" AND ALL WARRANTIES ARE EXPRESSLY DISCLAIMED, WHETHER
#EXPRESS, ORAL, IMPLIED, STATUTORY OR OTHERWISE, INCLUDING ANY IMPLIED WARRANTY OF FITNESS
#FOR A PARTICULAR PURPOSE, MERCHANTABILITY, TITLE OR NON-INFRINGEMENT, AND ANY WARRANTIES
#ARISING BY VIRTUE OF CUSTOM OF TRADE OR COURSE OF DEALING.  FURTHER, DRILLING INFO,
#INC. AND ITS LICENSORS DO NOT REPRESENT OR WARRANT THAT THIS FILE WILL MEET USER'S
#REQUIREMENTS OR ARE SUITABLE FOR USER'S NEEDS OR THAT THE DATA OR RESULTS PROVIDED IN
#CONJUNCTION THEREWITH ARE CORRECT, ACCURATE, TIMELY OR RELIABLE. THESE DISCLAIMERS SHALL
#APPLY REGARDLESS OF ANY FAILURE OF ESSENTIAL PURPOSE OF ANY LIMITED REMEDY.  SOME
#JURISDICTIONS DO NOT ALLOW THE EXCLUSION OF CERTAIN WARRANTIES SO SOME OF THE ABOVE
#EXCLUSIONS MAY NOT APPLY. IN NO EVENT SHALL DRILLING INFO, INC. OR ANY OF ITS AFFILIATES
#BE LIABLE UNDER ANY LEGAL THEORY, WHETHER IN TORT (INCLUDING WITHOUT LIMITATION
#NEGLIGENCE), CONTRACT, STRICT LIABILITY, STATUTORY OR OTHERWISE, FOR ANY SPECIAL,
#INCIDENTAL, CONSEQUENTIAL, EXEMPLARY, PUNITIVE OR INDIRECT DAMAGE OF ANY KIND, INCLUDING
#WITHOUT LIMITATION LOSS OF REVENUE, PROFITS, GOODWILL, USE, AND/OR DATA OR THE COST OF
#PROCUREMENT OF SUBSTITUTE GOODS OR SERVICES, EVEN IF APPRISED OF THE POSSIBILITY OF SUCH
#DAMAGES IN ADVANCE.
#--------------------------------------------------#
# Exported from DI Transform
# DI Transform - A Product of Drillinginfo, Inc. - www.drillinginfo.com
#--------------------------------------------------#
#
~VERSION INFORMATION
 VERS.        2.0 : LAS ASCII STANDARD - VERSION 2.0
 WRAP.         NO : ONE LINE PER DEPTH STEP

~WELL INFORMATION
#MNEM.UNIT       DATA TYPE       INFORMATION
#---------       ---------       -----------
 STRT.ft           120 : Start Depth
 STOP.ft          9260 : Stop Depth
 STEP.ft           0.5 : Step Length
 NULL.         -999.25 : Null Value
 COMP.                 : Company
 WELL.          DRD_90 : Well Name
 FLD.                  : Field Name
 LOC.                  : Well Location
 CNTY.                 : County
 STAT.                 : State or Province
 CTRY.                 : Country
 SRVC.                 : Service Company
 DATE.                 : Date
 API.   42383308360000 : Well Identifier

~CURVE INFORMATION
#MNEM.UNIT       API CODE       CURVE DESCRIPTION
#---------       --------       -----------------
 DEPT.ft          : <Measured Depth>
 CAL.in           : Caliper
 DPHI.%           : Density Porosity
 DT.us/ft         : Sonic
 GR.gAPI          : Gamma Ray
 LLD.ohmm         : Deep Resistivity
 LLS.ohmm         : Shallow Resistivity
 NPHI.%           : Neutron Porosity
 RHOB.g/cm3       : Density

~PARAMETER INFORMATION
#MNEM.UNIT       VALUE       DESCRIPTION
#---------       -----       -----------
 EKB.ft      2720 : Elevation above MSL

~A       DEPT         CAL        DPHI          DT          GR         LLD         LLS        NPHI        RHOB
# ...
       8770.5      8.5121      5.8607     78.6235    114.6656     12.6191     10.8684     19.6487      2.6082
         8771      8.5121      4.8373     78.7854    114.9975     12.6191     10.8684     19.7283      2.5942
       8771.5      8.5121      4.2112     78.7854     114.712     12.7772     10.8684     19.7141      2.6123
         8772      8.5121      5.1073     78.7045    112.9951     12.7772     10.8684     19.3441      2.6144
       8772.5      8.5121      4.8329     78.6235    111.5929     12.8218     10.8684     19.0275      2.6165
         8773      8.5121      4.1431     78.9928    110.8696     13.0992     10.8684     19.5296      2.6173
       8773.5        8.53      4.9327     79.4051    111.5942     13.0992     10.8684     19.9223      2.6173
         8774      8.5362      4.4096     79.4332    111.9565     13.0992     10.8684     20.1591      2.6188
       8774.5      8.5362      4.1256     79.5951    111.4188     13.2633     10.8684     20.2668       2.622
         8775      8.5362      3.6252     79.5951    110.5072     13.2633     10.8684     20.4823      2.6259
       8775.5      8.5362      3.4272     79.5951    110.8696     13.2633     11.0045     20.4823      2.6306
         8776      8.5362      4.8884     79.5142    110.8696     13.2633     11.0045     20.5361       2.629
       8776.5      8.5362      4.9344     79.0208    110.1577     13.7679     11.1423     20.3764      2.6147
         8777      8.5362      4.7207     78.5425    108.0308     13.7679     11.1423     20.3207      2.6126
       8777.5      8.5362      5.3589     78.5425    107.7155     13.5976     11.1423     20.2668      2.6105
         8778      8.5362       5.044     78.5425    107.8171     13.5976     11.1423      20.514      2.6066
       8778.5      8.5362      3.6322     78.5425    107.2464     13.5976     10.8684     21.1376      2.5996
         8779      8.4879      3.5044     78.5425    107.6087     13.7679     10.9594     20.8961      2.6291
       8779.5      8.4879      3.8784     78.5425    107.2464      13.901     11.0045     20.8692      2.6359
         8780      8.4879      2.7811     78.5425     106.542     13.9403     11.0045     21.0402      2.6435
       8780.5      8.4879      2.1946     78.4853    106.8841     13.9403     11.0045     20.7017      2.6425
         8781      8.4687      3.8012     78.5425    110.5072     13.9705     11.0045     20.4932      2.6313
       8781.5      8.4638      4.0515     78.5425    110.8696     14.4796     10.8684     20.5271      2.6255
         8782      8.4638      2.5946     78.4381    110.6752     14.6519     10.8684     20.8881      2.6401
       8782.5      8.4638       2.269     78.2309    110.1449     14.6519     11.2542     20.7835      2.6471
         8783      8.4638      2.3024     78.3806    110.2452     14.9613     11.7111     20.3178      2.6631
       8783.5      8.4638      4.1148     78.4615    110.9228     15.3572      11.973     19.5746      2.6292
         8784      8.4638      4.7858     78.4021    110.8603     15.3998     12.0063     19.6196      2.6157
       8784.5      8.4638      4.0503     78.3478     108.415     15.7282     12.1566     19.4112      2.6146
         8785      8.4638      4.4073     78.1817    107.1585     15.3998     11.9792     19.3513      2.6188
       8785.5      8.4486      5.1827     77.9757    106.8841     15.5927     11.8578     19.3513       2.635
         8786      8.4396      4.2803     77.8803    106.8841     15.5927     11.8578     19.4051      2.6588
       8786.5      8.4396      1.6461      77.736    106.5217     16.7624     12.1282      19.459      2.6702
         8787      8.4396      1.6663     77.9676    106.0732      17.441     12.7277     19.6334       2.641
       8787.5      8.4396      5.1431     78.0567    105.8363     17.6594     13.0992     20.4342       2.593
         8788      8.4396      6.1077     78.0872    106.5139     17.6594     13.1187     20.3224       2.593
       8788.5      8.4396      5.5803     77.9757    107.2464     17.8806     13.2633      20.213      2.5916
         8789      8.4396      5.7023     77.8668    106.6237     18.1045     13.2633      20.213      2.5916
       8789.5      8.4396      5.4035     77.5542    106.0104     18.1045     13.2633     20.2447      2.5916
         8790      8.4396      5.3508     77.3279    106.1594     18.1045     13.2633     20.5317      2.5916
       8790.5      8.4396      5.2081     77.4031    106.1594     17.8806     13.0992     20.7338      2.5916
         8791      8.4396      5.6671     78.1205    106.8841     17.6594     12.8258     20.4392      2.5928
       8791.5      8.4396      5.4121     78.4332    107.2212      17.441     12.7772     20.3207      2.5974
         8792      8.4396      5.2264     78.5425    106.1813      17.441     12.7417      20.479      2.6089
       8792.5      8.4396      4.6354     78.5726    106.8841     17.5118     12.6191     20.5464      2.6119
         8793      8.4396      4.1983     78.5237    107.6087     17.8806     12.7772     20.4456       2.616
       8793.5      8.4396      4.1089     78.2439    107.4094     18.3313     12.9372     20.5657      2.6173
         8794      8.4396      3.8683     77.8174    106.1594     18.3313     12.9372     20.6438       2.617
       8794.5      8.4155      4.8348     77.4717    106.8841     18.3313     13.0992       20.59       2.614
         8795      8.4155      4.8994     77.3828    107.3045     18.3313      12.985       20.59      2.6101
       8795.5      8.4155      5.6463     77.7577    110.1449     18.1045     12.6191     21.0208       2.603
         8796      8.4155      5.7844     78.0567    111.1959     18.0531     12.5833     20.9131      2.5943
       8796.5      8.4396      5.0418     78.3312    111.2319     17.6594     12.4631     20.6769      2.5956
         8797      8.4396      5.0683     78.4615    110.8696     17.6594     12.4307     20.2862       2.595
       8797.5      8.4396      5.6198     78.4615    111.0548     17.8806     12.4631     20.2668      2.5943
         8798      8.4396      5.7463     78.1567     112.457     17.8806     12.4631     20.2463      2.5987
       8798.5      8.4155      4.8095     78.0567    113.3147     18.5237     12.9113     19.7686      2.6096
         8799      8.4155      5.3608      77.606    111.7092     18.7933     13.0992     19.7283      2.6167
       8799.5      8.4155       5.764     77.3279    110.5102     18.7933     13.2633     19.7821      2.6204
         8800      8.4155      5.8697     77.3279    108.7457     18.7933     13.2633     19.9363      2.6108
       8800.5      8.4155      5.5123     77.3279    106.7158      19.592     13.4294     19.7966      2.6087
         8801      8.4155       4.805     77.2462    104.8542     20.5603     13.4662     19.7821      2.6006
       8801.5      8.4155      5.3319     76.9336    104.3478     20.7609     13.5976     19.7821      2.5925
         8802      8.4155      5.7636     76.6209    103.4991     20.7609     13.5976     20.0352      2.5943
       8802.5      8.4155      4.8895     76.1733    102.8986     20.9812     13.7679     20.3092      2.5984
         8803      8.4135      4.7899     75.4105    101.7816     21.2842     13.7679     19.7777      2.6092
       8803.5      8.3913      4.8348     74.7391    100.0255     20.6588     13.6316     19.6744      2.6092
         8804      8.3913      4.8924     74.4939    100.6606     19.6364     13.5976     19.5667      2.6092
       8804.5      8.3913      4.8498     74.5838    101.7706     18.7933     13.2056     19.7118      2.6092
         8805      8.3913      4.2472     75.2144    104.8583     18.5085     12.5835     20.2433      2.6157
       8805.5      8.3913      5.5913      75.527      105.64     18.3313     12.0734     20.2668      2.6119
         8806      8.3913      6.1542     76.4874    104.7101     18.3313     12.0063     20.0739      2.6105
       8806.5      8.3913      6.8336     76.6381    105.2851     17.0427     11.8578     19.2881      2.6021
