#--------------------------------------------------#
#----------------DRILLING INFO, INC.---------------#
#---------------WWW.DRILLINGINFO.COM---------------#
#------------------COPYRIGHT 2018------------------#
#--------------------------------------------------#
#THIS FILE MAY BE USED ONLY IN ACCORDANCE WITH A CURRENT SUBSCRIPTION AGREEMENT BETWEEN
#THE USER AND DRILLING INFO, INC. NO PART OF THIS FILE MAY BE REPRODUCED, USED, COPIED,
#MODIFIED, PROPAGATED, OR DISTRIBUTED EXCEPT IN ACCORDANCE WITH THE SUBSCRIPTION
#AGREEMENT. UNAUTHORIZED USE OR DISTRIBUTION OF ALL OR ANY PART OF THIS FILE MAY VIOLATE
#COPYRIGHT, TRADEMARK, AND/OR OTHER LAWS AND IS SUBJECT TO CIVIL AS WELL AS CRIMINAL
#SANCTIONS.
#--------------------------------------------------#
#THIS FILE IS PROVIDED "AS-IS" AND ALL WARRANTIES ARE EXPRESSLY DISCLAIMED, WHETHER
#EXPRESS, ORAL, IMPLIED, STATUTORY OR OTHERWISE, INCLUDING ANY IMPLIED WARRANTY OF FITNESS
#FOR A PARTICULAR PURPOSE, MERCHANTABILITY, TITLE OR NON-INFRINGEMENT, AND ANY WARRANTIES
#ARISING BY VIRTUE OF CUSTOM OF TRADE OR COURSE OF DEALING.  FURTHER, DRILLING INFO,
#INC. AND ITS LICENSORS DO NOT REPRESENT OR WARRANT THAT THIS FILE WILL MEET USER'S
#REQUIREMENTS OR ARE SUITABLE FOR USER'S NEEDS OR THAT THE DATA OR RESULTS PROVIDED IN
#CONJUNCTION THEREWITH ARE CORRECT, ACCURATE, TIMELY OR RELIABLE. THESE DISCLAIMERS SHALL
#APPLY REGARDLESS OF ANY FAILURE OF ESSENTIAL PURPOSE OF ANY LIMITED REMEDY.  SOME
#JURISDICTIONS DO NOT ALLOW THE EXCLUSION OF CERTAIN WARRANTIES SO SOME OF THE ABOVE
#EXCLUSIONS MAY NOT APPLY. IN NO EVENT SHALL DRILLING INFO, INC. OR ANY OF ITS AFFILIATES
#BE LIABLE UNDER ANY LEGAL THEORY, WHETHER IN TORT (INCLUDING WITHOUT LIMITATION
#NEGLIGENCE), CONTRACT, STRICT LIABILITY, STATUTORY OR OTHERWISE, FOR ANY SPECIAL,
#INCIDENTAL, CONSEQUENTIAL, EXEMPLARY, PUNITIVE OR INDIRECT DAMAGE OF ANY KIND, INCLUDING
#WITHOUT LIMITATION LOSS OF REVENUE, PROFITS, GOODWILL, USE, AND/OR DATA OR THE COST OF
#PROCUREMENT OF SUBSTITUTE GOODS OR SERVICES, EVEN IF APPRISED OF THE POSSIBILITY OF SUCH
#DAMAGES IN ADVANCE.
#--------------------------------------------------#
# Exported from DI Transform
# DI Transform - A Product of Drillinginfo, Inc. - www.drillinginfo.com
#--------------------------------------------------#
#
~VERSION INFORMATION
 VERS.        2.0 : LAS ASCII STANDARD - VERSION 2.0
 WRAP.         NO : ONE LINE PER DEPTH STEP

~WELL INFORMATION
#MNEM.UNIT       DATA TYPE       INFORMATION
#---------       ---------       -----------
 STRT.ft           120 : Start Depth
 STOP.ft          9260 : Stop Depth
 STEP.ft           0.5 : Step Length
 NULL.         -999.25 : Null Value
 COMP.                 : Company
 WELL.          DRD_90 : Well Name
 FLD.                  : Field Name
 LOC.                  : Well Location
 CNTY.                 : County
 STAT.                 : State or Province
 CTRY.                 : Country
 SRVC.                 : Service Company
 DATE.                 : Date
 API.   42383308360000 : Well Identifier

~CURVE INFORMATION
#MNEM.UNIT       API CODE       CURVE DESCRIPTION
#---------       --------       -----------------
 DEPT.ft          : <Measured Depth>
 CAL.in           : Caliper
 DPHI.%           : Density Porosity
 DT.us/ft         : Sonic
 GR.gAPI          : Gamma Ray
 LLD.ohmm         : Deep Resistivity
 LLS.ohmm         : Shallow Resistivity
 NPHI.%           : Neutron Porosity
 RHOB.g/cm3       : Density

~PARAMETER INFORMATION
#MNEM.UNIT       VALUE       DESCRIPTION
#---------       -----       -----------
 EKB.ft      2720 : Elevation above MSL

~A       DEPT         CAL        DPHI          DT          GR         LLD         LLS        NPHI        RHOB
# ...
         7420      8.2705      7.7548     83.0628     93.1159     10.8284      6.1082     19.1797      2.5774
       7420.5      8.2947      7.3673     85.2378     92.7536     10.4475      6.1509     19.6504      2.5589
         7421      8.2947      6.9421     85.4942     93.1159     10.7407       6.582     19.6744      2.5593
       7421.5      8.2947        8.56     83.2409     93.4236     11.8943      7.4252     19.7821      2.5457
         7422      8.2947      8.5694     80.5714     93.4783     13.5644      8.7743      20.213      2.5344
       7422.5      8.3188      7.3185     79.6163     92.3264     13.9403      9.1722     20.6977      2.5603
         7423      8.3188      7.0644     80.1612     88.6016     13.3373      8.5206     19.7574      2.5649
       7423.5      8.3188      6.6458     80.9059     85.2682     11.7013      7.6991      18.813      2.5674
         7424      8.3188      6.8421     82.3482     83.6957     10.8271      6.4086     17.6333      2.5674
       7424.5      8.3188      6.8421     82.4291     85.4405     10.4463      6.4585     17.4451      2.5694
         7425      8.3188      6.6981     80.7091     91.6018     10.4778      7.3032     17.9667      2.5791
       7425.5      8.3188      5.7928     79.7255     93.4096     10.6012      7.3892     18.8666      2.5902
         7426      8.3188      4.6641     78.5297     93.1159     10.7089      7.4817      19.011      2.6101
       7426.5      8.3188      3.7417     77.8535     89.2196     11.2383      7.4817      19.537      2.6245
         7427      8.3188      3.6314     78.2089     84.1915     11.0646      7.4817     18.5166      2.6116
       7427.5      8.2705       4.898     81.7709     79.3478     10.6755      7.3892     17.0737       2.604
         7428      8.2705      5.1593     84.0163     82.5617     10.5597      7.0028     17.1024      2.5866
       7428.5      8.2705      7.0518     86.3907     91.0273      9.3605      6.5265     17.5766      2.5482
         7429      8.2705      8.3089     86.7469     96.2698      8.8836       6.364     18.3231      2.5275
       7429.5      8.2947       9.132     86.8016    101.9671      8.3744      6.1437      18.772      2.5248
         7430      8.3102      9.2726     86.1078    103.3906      8.6677      6.8423     19.6262      2.5227
       7430.5      8.3671       9.462     85.6831    103.0754      9.2447      7.3341     21.0635      2.5201
         7431      8.3671      9.7638     84.1483    102.5362     11.2791      8.4286     21.3234      2.5171
       7431.5      8.3671     10.2693     84.3424    101.3579     13.2783      9.6027     21.1149      2.5173
         7432      8.3671      9.1437     86.5968    101.1313     13.2099     10.7368     20.8054      2.5147
       7432.5       8.343      8.7519     87.1539    101.4493     12.6191      9.8147       21.02      2.5019
         7433       8.343      8.4635     86.7906     101.087     12.2971       9.113      21.487      2.5399
       7433.5       8.343      9.2639     85.7431    100.0968     11.2688      8.5079     22.2414      2.5241
         7434      8.3188      9.3189     82.2155     98.3322      13.305      9.8176      22.227      2.5181
       7434.5      8.2947      8.4836     79.5506     92.4107     16.2429     10.8666      21.242       2.543
         7435      8.2947      7.6163     73.8967     86.5047     17.8437     11.5065     19.8464      2.5617
       7435.5      8.2947      5.9754      73.888     76.1398      17.441      12.145     18.3955       2.589
         7436      8.2927      4.3307     76.1046     71.7391     15.7295      12.323     16.9188      2.6136
       7436.5      8.2705      4.7835     79.0003     74.2586     12.9981      8.2981     16.6071      2.5978
         7437      8.2506      5.3157     86.2391     80.9057      8.8926      7.6785     16.5667       2.585
       7437.5      8.2464      6.2442     84.7727     88.4911     11.9794       9.729     19.5199      2.5681
         7438      8.2842       6.989     80.3291     89.0606     21.4655     11.4232     22.1374      2.5903
       7438.5      8.2947      5.6405     74.0798     85.5547     32.3106     17.8176     22.5639       2.636
         7439      8.2947      1.6459     64.7612     73.9755     38.6296     32.8523     22.3553      2.6727
       7439.5      8.2663      -0.369     59.7132     63.2528     25.5004     37.1161     18.7631      2.6939
         7440      8.1981     -2.3155     61.8839     48.9293     16.9398      36.719     13.1104      2.7038
       7440.5      8.1981     -3.6551     65.6647     50.3315     16.1419     11.3061     11.9445      2.7059
         7441      8.1739     -0.9794     75.0926     64.0258     15.2094      10.734     12.6269      2.7325
       7441.5      8.1897      1.6011     78.2004     76.0563     15.3998     10.0977     15.2908      2.6638
         7442      8.2464      6.4953     79.0274     80.2629     15.3998     10.4701     16.7407      2.5931
       7442.5      8.2559      7.5013     79.7804     82.7521     15.9857     10.4701     16.9278      2.5703
         7443      8.2947        7.52      80.197     83.8401     16.1859     10.4701     17.3368      2.5694
       7443.5      8.2414      7.2352     80.5215     86.5116     15.6949     10.1524     18.2203      2.5673
         7444      8.1739       6.382     81.0652     90.5819     14.8909      9.6742     18.3822      2.5652
       7444.5      8.1739      6.6208     83.4034     92.3241     13.3914      8.3449     18.3414       2.563
         7445      8.2644       7.711     84.1196     93.0241     12.7606      7.7272     18.0724      2.5589
       7445.5      8.2947      7.9686     86.4016     96.8114     12.5394      8.5233     18.8405       2.548
         7446      8.2947      9.0215     85.9924     98.7271     13.6726      9.0016     20.6927      2.5404
       7446.5      8.3188      7.9438     82.6348      98.913     18.0153     12.6321     21.2901      2.5359
         7447      8.3188      7.7345       79.76     98.4685     21.2842     14.6797     20.9902      2.5343
       7447.5      8.3188      8.5496     78.8736     97.5921     21.4212     13.1474     20.6924      2.5331
         7448      8.3188      8.9979     78.9614     95.3135     19.5692     12.9372     20.6438       2.532
       7448.5      8.2764      8.5915     80.8308     93.8406     15.1645     10.5391       20.59      2.5308
         7449      8.2705      8.6604     81.8653     93.4783     13.7679       8.109     20.1591      2.5296
       7449.5      8.2705      9.0246     83.4515     93.4783     14.8294      9.3594     20.8827      2.5349
         7450      8.2705      8.8984     81.8412     92.5913     16.3616      9.8221     21.3328      2.5377
       7450.5      8.2705      8.5401     77.4666     89.5834     18.3574     11.6567     21.3328      2.5377
         7451      8.2705      7.6361     74.5992     84.7144     24.1052     15.1377     20.8065      2.5411
       7451.5      8.2705      7.4253     70.3335     77.7609     26.3803     17.2793     18.2966      2.5568
         7452      8.2464      7.1883     67.8479     73.2143     32.6479     20.5994     16.4085      2.5594
       7452.5      8.2464      6.6905     69.1246     70.3628     34.8256     17.0897     14.8227      2.5673
         7453      8.2464      6.5973     71.7594     69.5652     21.8047     11.8396     13.1115      2.5732
       7453.5      8.2464      5.9834     74.7452     70.1228     17.2253     11.2819     12.5365      2.5772
         7454      8.2222       5.647     76.4677      76.573     16.0231     10.8684     13.4762      2.5837
       7454.5      8.2068       5.023     77.6284     85.4192     15.0679     10.7673     16.3966      2.5898
         7455      8.1461      6.9828     77.9836     87.2105     14.8354     10.6012     19.8113      2.6008
       7455.5      8.1256      6.3213     79.1891     84.4132      14.247     10.0901     20.4405      2.5724
         7456      8.1256      5.6316     83.7966     84.7227     10.9527      8.4734     18.0225      2.5703
